{"type":"FeatureCollection","features":[{"type":"Feature","id":"56679924","geometry":{"type":"Point","coordinates":[-77.0592213018017,38.90222845310455]},"properties":{"OBJECTID":56679924,"ID":72,"ADDRESS":"Georgetown Harbor / 30th St NW","TERMINAL_NUMBER":"31215","LATITUDE":38.902221,"LONGITUDE":-77.059219,"INSTALLED":"YES","LOCKED":"NO","INSTALL_DATE":"2010-10-05T13:43:00.000Z","REMOVAL_DATE":null,"TEMPORARY_INSTALL":"NO","NUMBER_OF_BIKES":15,"NUMBER_OF_EMPTY_DOCKS":4,"X":394863.27537199,"Y":137153.4794371,"SE_ANNO_CAD_DATA":null}},{"type":"Feature","id":"56679925","geometry":{"type":"Point","coordinates":[-76.99101828288666,38.9336754620795]},"properties":{"OBJECTID":56679925,"ID":73,"ADDRESS":"12th & Newton St NE","TERMINAL_NUMBER":"31501","LATITUDE":38.933668,"LONGITUDE":-76.991016,"INSTALLED":"YES","LOCKED":"NO","INSTALL_DATE":"2010-10-05T15:17:00.000Z","REMOVAL_DATE":null,"TEMPORARY_INSTALL":"NO","NUMBER_OF_BIKES":8,"NUMBER_OF_EMPTY_DOCKS":3,"X":400778.93906675,"Y":140642.73217716,"SE_ANNO_CAD_DATA":null}},{"type":"Feature","id":"56679926","geometry":{"type":"Point","coordinates":[-77.04658929718887,38.89492645223698]},"properties":{"OBJECTID":56679926,"ID":74,"ADDRESS":"US Dept of State / Virginia Ave & 21st St NW","TERMINAL_NUMBER":"31220","LATITUDE":38.894919,"LONGITUDE":-77.046587,"INSTALLED":"YES","LOCKED":"NO","INSTALL_DATE":"2010-10-09T18:05:00.000Z","REMOVAL_DATE":null,"TEMPORARY_INSTALL":"NO","NUMBER_OF_BIKES":0,"NUMBER_OF_EMPTY_DOCKS":15,"X":395958.57590909,"Y":136342.26423477,"SE_ANNO_CAD_DATA":null}},{"type":"Feature","id":"56679927","geometry":{"type":"Point","coordinates":[-77.02224328918696,38.88627345122643]},"properties":{"OBJECTID":56679927,"ID":75,"ADDRESS":"LEnfant Plaza / 7th & C St SW","TERMINAL_NUMBER":"31218","LATITUDE":38.886266,"LONGITUDE":-77.022241,"INSTALLED":"YES","LOCKED":"NO","INSTALL_DATE":"2010-10-06T20:23:00.000Z","REMOVAL_DATE":null,"TEMPORARY_INSTALL":"NO","NUMBER_OF_BIKES":12,"NUMBER_OF_EMPTY_DOCKS":2,"X":398070.35828347,"Y":135380.91731644,"SE_ANNO_CAD_DATA":null}},{"type":"Feature","id":"56679928","geometry":{"type":"Point","coordinates":[-77.026015291389,38.893035452677104]},"properties":{"OBJECTID":56679928,"ID":76,"ADDRESS":"10th St & Constitution Ave NW","TERMINAL_NUMBER":"31219","LATITUDE":38.893028,"LONGITUDE":-77.02601299999999,"INSTALLED":"YES","LOCKED":"NO","INSTALL_DATE":"2010-10-07T20:27:00.000Z","REMOVAL_DATE":null,"TEMPORARY_INSTALL":"NO","NUMBER_OF_BIKES":16,"NUMBER_OF_EMPTY_DOCKS":14,"X":397743.31133834,"Y":136131.63860373,"SE_ANNO_CAD_DATA":null}},{"type":"Feature","id":"56679929","geometry":{"type":"Point","coordinates":[-77.05484730033457,38.89519145178692]},"properties":{"OBJECTID":56679929,"ID":77,"ADDRESS":"Kennedy Center","TERMINAL_NUMBER":"31211","LATITUDE":38.895184,"LONGITUDE":-77.054845,"INSTALLED":"YES","LOCKED":"NO","INSTALL_DATE":"2010-10-05T20:31:00.000Z","REMOVAL_DATE":null,"TEMPORARY_INSTALL":"NO","NUMBER_OF_BIKES":7,"NUMBER_OF_EMPTY_DOCKS":4,"X":395242.2118359,"Y":136372.07931893,"SE_ANNO_CAD_DATA":null}},{"type":"Feature","id":"56679930","geometry":{"type":"Point","coordinates":[-76.99539928118972,38.884007451746875]},"properties":{"OBJECTID":56679930,"ID":78,"ADDRESS":"Eastern Market Metro / Pennsylvania Ave & 7th St SE","TERMINAL_NUMBER":"31613","LATITUDE":38.884,"LONGITUDE":-76.995397,"INSTALLED":"YES","LOCKED":"NO","INSTALL_DATE":"2010-10-06T20:37:00.000Z","REMOVAL_DATE":null,"TEMPORARY_INSTALL":"NO","NUMBER_OF_BIKES":6,"NUMBER_OF_EMPTY_DOCKS":12,"X":400399.37156595,"Y":135129.14881891,"SE_ANNO_CAD_DATA":null}},{"type":"Feature","id":"56679931","geometry":{"type":"Point","coordinates":[-77.04160829648593,38.90474945444218]},"properties":{"OBJECTID":56679931,"ID":79,"ADDRESS":"18th & M St NW","TERMINAL_NUMBER":"31221","LATITUDE":38.904742,"LONGITUDE":-77.041606,"INSTALLED":"YES","LOCKED":"NO","INSTALL_DATE":"2010-10-07T09:29:00.000Z","REMOVAL_DATE":null,"TEMPORARY_INSTALL":"NO","NUMBER_OF_BIKES":9,"NUMBER_OF_EMPTY_DOCKS":10,"X":396391.17480356,"Y":137432.48710553,"SE_ANNO_CAD_DATA":null}},{"type":"Feature","id":"56679932","geometry":{"type":"Point","coordinates":[-77.07938431109429,38.94761446139673]},"properties":{"OBJECTID":56679932,"ID":80,"ADDRESS":"Tenleytown / Wisconsin Ave & Albemarle St NW","TERMINAL_NUMBER":"31303","LATITUDE":38.947607,"LONGITUDE":-77.079382,"INSTALLED":"YES","LOCKED":"NO","INSTALL_DATE":"2010-10-15T09:45:00.000Z","REMOVAL_DATE":null,"TEMPORARY_INSTALL":"NO","NUMBER_OF_BIKES":6,"NUMBER_OF_EMPTY_DOCKS":9,"X":393118.69490052,"Y":142193.03813587,"SE_ANNO_CAD_DATA":null}},{"type":"Feature","id":"56679933","geometry":{"type":"Point","coordinates":[-76.98820227974795,38.900307455535724]},"properties":{"OBJECTID":56679933,"ID":81,"ADDRESS":"13th & H St NE","TERMINAL_NUMBER":"31611","LATITUDE":38.9003,"LONGITUDE":-76.9882,"INSTALLED":"YES","LOCKED":"NO","INSTALL_DATE":"2010-10-08T10:10:00.000Z","REMOVAL_DATE":null,"TEMPORARY_INSTALL":"NO","NUMBER_OF_BIKES":6,"NUMBER_OF_EMPTY_DOCKS":21,"X":401023.57329617,"Y":136938.63304319,"SE_ANNO_CAD_DATA":null}},{"type":"Feature","id":"56679934","geometry":{"type":"Point","coordinates":[-77.01934928908376,38.89722945348999]},"properties":{"OBJECTID":56679934,"ID":82,"ADDRESS":"5th & F St NW","TERMINAL_NUMBER":"31620","LATITUDE":38.897222,"LONGITUDE":-77.019347,"INSTALLED":"YES","LOCKED":"NO","INSTALL_DATE":"2010-10-07T18:58:00.000Z","REMOVAL_DATE":null,"TEMPORARY_INSTALL":"NO","NUMBER_OF_BIKES":21,"NUMBER_OF_EMPTY_DOCKS":10,"X":398321.70110602,"Y":136597.06213502,"SE_ANNO_CAD_DATA":null}},{"type":"Feature","id":"56679935","geometry":{"type":"Point","coordinates":[-77.03370229389014,38.89910745355862]},"properties":{"OBJECTID":56679935,"ID":83,"ADDRESS":"New York Ave & 15th St NW","TERMINAL_NUMBER":"31222","LATITUDE":38.899100000000004,"LONGITUDE":-77.03370000000001,"INSTALLED":"YES","LOCKED":"NO","INSTALL_DATE":"2010-10-09T09:46:00.000Z","REMOVAL_DATE":null,"TEMPORARY_INSTALL":"NO","NUMBER_OF_BIKES":7,"NUMBER_OF_EMPTY_DOCKS":8,"X":397076.69494362,"Y":136805.89686003,"SE_ANNO_CAD_DATA":null}},{"type":"Feature","id":"56679936","geometry":{"type":"Point","coordinates":[-77.02226629042156,38.90572745498945]},"properties":{"OBJECTID":56679936,"ID":84,"ADDRESS":"Convention Center / 7th & M St NW","TERMINAL_NUMBER":"31223","LATITUDE":38.905719999999995,"LONGITUDE":-77.02226399999999,"INSTALLED":"YES","LOCKED":"NO","INSTALL_DATE":"2010-10-09T09:46:00.000Z","REMOVAL_DATE":null,"TEMPORARY_INSTALL":"NO","NUMBER_OF_BIKES":12,"NUMBER_OF_EMPTY_DOCKS":7,"X":398068.88947444,"Y":137540.46614678,"SE_ANNO_CAD_DATA":null}},{"type":"Feature","id":"56679937","geometry":{"type":"Point","coordinates":[-77.04336029844254,38.92787945885311]},"properties":{"OBJECTID":56679937,"ID":85,"ADDRESS":"Harvard St & Adams Mill Rd NW","TERMINAL_NUMBER":"31112","LATITUDE":38.927872,"LONGITUDE":-77.043358,"INSTALLED":"YES","LOCKED":"NO","INSTALL_DATE":"2011-01-04T14:14:00.000Z","REMOVAL_DATE":null,"TEMPORARY_INSTALL":"NO","NUMBER_OF_BIKES":10,"NUMBER_OF_EMPTY_DOCKS":5,"X":396240.42917895,"Y":140000.1805638,"SE_ANNO_CAD_DATA":null}},{"type":"Feature","id":"56679938","geometry":{"type":"Point","coordinates":[-77.04365029734956,38.903414453757854]},"properties":{"OBJECTID":56679938,"ID":86,"ADDRESS":"19th & L St NW","TERMINAL_NUMBER":"31224","LATITUDE":38.903407,"LONGITUDE":-77.04364799999999,"INSTALLED":"YES","LOCKED":"NO","INSTALL_DATE":"2010-10-15T18:48:00.000Z","REMOVAL_DATE":null,"TEMPORARY_INSTALL":"NO","NUMBER_OF_BIKES":0,"NUMBER_OF_EMPTY_DOCKS":15,"X":396213.98476874,"Y":137284.37401814,"SE_ANNO_CAD_DATA":null}},{"type":"Feature","id":"56679939","geometry":{"type":"Point","coordinates":[-77.06269230276477,38.90375745302341]},"properties":{"OBJECTID":56679939,"ID":87,"ADDRESS":"C & O Canal & Wisconsin Ave NW","TERMINAL_NUMBER":"31225","LATITUDE":38.903749999999995,"LONGITUDE":-77.06269,"INSTALLED":"YES","LOCKED":"NO","INSTALL_DATE":"2010-10-19T00:00:00.000Z","REMOVAL_DATE":null,"TEMPORARY_INSTALL":"NO","NUMBER_OF_BIKES":11,"NUMBER_OF_EMPTY_DOCKS":12,"X":394562.31341761,"Y":137323.41177846,"SE_ANNO_CAD_DATA":null}},{"type":"Feature","id":"56679940","geometry":{"type":"Point","coordinates":[-77.02127228836545,38.87675744943787]},"properties":{"OBJECTID":56679940,"ID":88,"ADDRESS":"6th & Water St SW / SW Waterfront","TERMINAL_NUMBER":"31609","LATITUDE":38.87675,"LONGITUDE":-77.02127,"INSTALLED":"YES","LOCKED":"NO","INSTALL_DATE":"2010-10-22T00:00:00.000Z","REMOVAL_DATE":null,"TEMPORARY_INSTALL":"NO","NUMBER_OF_BIKES":1,"NUMBER_OF_EMPTY_DOCKS":18,"X":398154.35666339,"Y":134324.54843082,"SE_ANNO_CAD_DATA":null}},{"type":"Feature","id":"56679941","geometry":{"type":"Point","coordinates":[-76.99711628236007,38.894765453853935]},"properties":{"OBJECTID":56679941,"ID":89,"ADDRESS":"D St & Maryland Ave NE","TERMINAL_NUMBER":"31612","LATITUDE":38.894757999999996,"LONGITUDE":-76.997114,"INSTALLED":"YES","LOCKED":"NO","INSTALL_DATE":"2012-02-24T10:41:00.000Z","REMOVAL_DATE":null,"TEMPORARY_INSTALL":"NO","NUMBER_OF_BIKES":1,"NUMBER_OF_EMPTY_DOCKS":22,"X":400250.36118988,"Y":136323.3646939,"SE_ANNO_CAD_DATA":null}},{"type":"Feature","id":"56679942","geometry":{"type":"Point","coordinates":[-77.06820230529027,38.91644945549275]},"properties":{"OBJECTID":56679942,"ID":90,"ADDRESS":"34th St & Wisconsin Ave NW","TERMINAL_NUMBER":"31226","LATITUDE":38.916441999999996,"LONGITUDE":-77.0682,"INSTALLED":"YES","LOCKED":"NO","INSTALL_DATE":"2010-10-15T18:46:00.000Z","REMOVAL_DATE":null,"TEMPORARY_INSTALL":"NO","NUMBER_OF_BIKES":2,"NUMBER_OF_EMPTY_DOCKS":9,"X":394085.43254774,"Y":138732.67032807,"SE_ANNO_CAD_DATA":null}},{"type":"Feature","id":"56679943","geometry":{"type":"Point","coordinates":[-77.02982429299058,38.900290454011795]},"properties":{"OBJECTID":56679943,"ID":91,"ADDRESS":"13th St & New York Ave NW","TERMINAL_NUMBER":"31227","LATITUDE":38.900283,"LONGITUDE":-77.029822,"INSTALLED":"YES","LOCKED":"NO","INSTALL_DATE":"2010-10-18T11:48:00.000Z","REMOVAL_DATE":null,"TEMPORARY_INSTALL":"NO","NUMBER_OF_BIKES":11,"NUMBER_OF_EMPTY_DOCKS":11,"X":397413.13477499,"Y":136937.10228977,"SE_ANNO_CAD_DATA":null}},{"type":"Feature","id":"56679944","geometry":{"type":"Point","coordinates":[-77.02308829046852,38.89970745408711]},"properties":{"OBJECTID":56679944,"ID":92,"ADDRESS":"8th & H St NW","TERMINAL_NUMBER":"31228","LATITUDE":38.8997,"LONGITUDE":-77.02308599999999,"INSTALLED":"YES","LOCKED":"NO","INSTALL_DATE":"2010-10-15T00:00:00.000Z","REMOVAL_DATE":null,"TEMPORARY_INSTALL":"NO","NUMBER_OF_BIKES":18,"NUMBER_OF_EMPTY_DOCKS":15,"X":397997.42273853,"Y":136872.21529625,"SE_ANNO_CAD_DATA":null}},{"type":"Feature","id":"56679945","geometry":{"type":"Point","coordinates":[-76.9928912829931,38.932521461519784]},"properties":{"OBJECTID":56679945,"ID":93,"ADDRESS":"10th & Monroe St NE","TERMINAL_NUMBER":"31504","LATITUDE":38.932514,"LONGITUDE":-76.99288899999999,"INSTALLED":"YES","LOCKED":"NO","INSTALL_DATE":"2010-10-14T18:42:00.000Z","REMOVAL_DATE":null,"TEMPORARY_INSTALL":"NO","NUMBER_OF_BIKES":5,"NUMBER_OF_EMPTY_DOCKS":6,"X":400616.55446976,"Y":140514.61383071,"SE_ANNO_CAD_DATA":null}},{"type":"Feature","id":"56679946","geometry":{"type":"Point","coordinates":[-77.00495228544676,38.910979456634394]},"properties":{"OBJECTID":56679946,"ID":94,"ADDRESS":"Eckington Pl & Q St NE","TERMINAL_NUMBER":"31505","LATITUDE":38.910972,"LONGITUDE":-77.00495,"INSTALLED":"YES","LOCKED":"NO","INSTALL_DATE":"2010-10-14T18:42:00.000Z","REMOVAL_DATE":null,"TEMPORARY_INSTALL":"NO","NUMBER_OF_BIKES":6,"NUMBER_OF_EMPTY_DOCKS":5,"X":399570.68391328,"Y":138123.25727842,"SE_ANNO_CAD_DATA":null}},{"type":"Feature","id":"56679947","geometry":{"type":"Point","coordinates":[-76.99831228338542,38.90039145515764]},"properties":{"OBJECTID":56679947,"ID":95,"ADDRESS":"6th & H St NE","TERMINAL_NUMBER":"31615","LATITUDE":38.900383999999995,"LONGITUDE":-76.99831,"INSTALLED":"YES","LOCKED":"NO","INSTALL_DATE":"2011-12-12T09:32:00.000Z","REMOVAL_DATE":null,"TEMPORARY_INSTALL":"NO","NUMBER_OF_BIKES":10,"NUMBER_OF_EMPTY_DOCKS":12,"X":400146.59634223,"Y":136947.89292024,"SE_ANNO_CAD_DATA":null}},{"type":"Feature","id":"56679948","geometry":{"type":"Point","coordinates":[-77.0019512841217,38.90041945460018]},"properties":{"OBJECTID":56679948,"ID":96,"ADDRESS":"3rd & H St NE","TERMINAL_NUMBER":"31616","LATITUDE":38.900411999999996,"LONGITUDE":-77.001949,"INSTALLED":"YES","LOCKED":"NO","INSTALL_DATE":"2010-10-14T18:41:00.000Z","REMOVAL_DATE":null,"TEMPORARY_INSTALL":"NO","NUMBER_OF_BIKES":6,"NUMBER_OF_EMPTY_DOCKS":12,"X":399830.93718412,"Y":136951.00159269,"SE_ANNO_CAD_DATA":null}},{"type":"Feature","id":"56679949","geometry":{"type":"Point","coordinates":[-76.98287427821413,38.90042045567805]},"properties":{"OBJECTID":56679949,"ID":97,"ADDRESS":"Bladensburg Rd & Benning Rd NE","TERMINAL_NUMBER":"31617","LATITUDE":38.900413,"LONGITUDE":-76.982872,"INSTALLED":"YES","LOCKED":"NO","INSTALL_DATE":"2010-10-27T13:26:00.000Z","REMOVAL_DATE":null,"TEMPORARY_INSTALL":"NO","NUMBER_OF_BIKES":4,"NUMBER_OF_EMPTY_DOCKS":10,"X":401485.74030431,"Y":136951.25017695,"SE_ANNO_CAD_DATA":null}},{"type":"Feature","id":"56679950","geometry":{"type":"Point","coordinates":[-77.00035128306926,38.88996245265362]},"properties":{"OBJECTID":56679950,"ID":98,"ADDRESS":"4th & East Capitol St NE","TERMINAL_NUMBER":"31618","LATITUDE":38.889955,"LONGITUDE":-77.000349,"INSTALLED":"YES","LOCKED":"NO","INSTALL_DATE":"2010-10-14T00:00:00.000Z","REMOVAL_DATE":null,"TEMPORARY_INSTALL":"NO","NUMBER_OF_BIKES":1,"NUMBER_OF_EMPTY_DOCKS":10,"X":399969.72212823,"Y":135790.19001869,"SE_ANNO_CAD_DATA":null}},{"type":"Feature","id":"56679951","geometry":{"type":"Point","coordinates":[-76.9883572794249,38.890468453547605]},"properties":{"OBJECTID":56679951,"ID":99,"ADDRESS":"Lincoln Park / 13th & East Capitol St NE","TERMINAL_NUMBER":"31619","LATITUDE":38.890460999999995,"LONGITUDE":-76.988355,"INSTALLED":"YES","LOCKED":"NO","INSTALL_DATE":"2010-10-25T16:35:00.000Z","REMOVAL_DATE":null,"TEMPORARY_INSTALL":"NO","NUMBER_OF_BIKES":4,"NUMBER_OF_EMPTY_DOCKS":21,"X":401010.26737857,"Y":135846.42435537,"SE_ANNO_CAD_DATA":null}},{"type":"Feature","id":"56679952","geometry":{"type":"Point","coordinates":[-76.95990226916216,38.869207450324076]},"properties":{"OBJECTID":56679952,"ID":100,"ADDRESS":"Branch & Pennsylvania Ave SE","TERMINAL_NUMBER":"31701","LATITUDE":38.8692,"LONGITUDE":-76.9599,"INSTALLED":"YES","LOCKED":"NO","INSTALL_DATE":"2011-06-25T09:30:00.000Z","REMOVAL_DATE":null,"TEMPORARY_INSTALL":"NO","NUMBER_OF_BIKES":5,"NUMBER_OF_EMPTY_DOCKS":6,"X":403479.93073282,"Y":133486.99116678,"SE_ANNO_CAD_DATA":null}},{"type":"Feature","id":"56679953","geometry":{"type":"Point","coordinates":[-76.98763527974936,38.89483945435527]},"properties":{"OBJECTID":56679953,"ID":101,"ADDRESS":"13th & D St NE","TERMINAL_NUMBER":"31622","LATITUDE":38.894832,"LONGITUDE":-76.987633,"INSTALLED":"YES","LOCKED":"NO","INSTALL_DATE":"2010-10-26T13:28:00.000Z","REMOVAL_DATE":null,"TEMPORARY_INSTALL":"NO","NUMBER_OF_BIKES":4,"NUMBER_OF_EMPTY_DOCKS":27,"X":401072.83909032,"Y":136331.64799161,"SE_ANNO_CAD_DATA":null}},{"type":"Feature","id":"56679954","geometry":{"type":"Point","coordinates":[-77.03818229633075,38.91554745640232]},"properties":{"OBJECTID":56679954,"ID":102,"ADDRESS":"New Hampshire Ave & T St NW","TERMINAL_NUMBER":"31229","LATITUDE":38.91554,"LONGITUDE":-77.03818,"INSTALLED":"YES","LOCKED":"NO","INSTALL_DATE":"2010-10-15T17:27:00.000Z","REMOVAL_DATE":null,"TEMPORARY_INSTALL":"NO","NUMBER_OF_BIKES":18,"NUMBER_OF_EMPTY_DOCKS":4,"X":396688.84082399,"Y":138631.02389384,"SE_ANNO_CAD_DATA":null}},{"type":"Feature","id":"56679955","geometry":{"type":"Point","coordinates":[-77.0278712921779,38.89837145371911]},"properties":{"OBJECTID":56679955,"ID":103,"ADDRESS":"Metro Center / 12th & G St NW","TERMINAL_NUMBER":"31230","LATITUDE":38.898364,"LONGITUDE":-77.027869,"INSTALLED":"YES","LOCKED":"NO","INSTALL_DATE":"2011-05-13T00:00:00.000Z","REMOVAL_DATE":null,"TEMPORARY_INSTALL":"NO","NUMBER_OF_BIKES":28,"NUMBER_OF_EMPTY_DOCKS":3,"X":397582.47982913,"Y":136724.02441237,"SE_ANNO_CAD_DATA":null}},{"type":"Feature","id":"56679956","geometry":{"type":"Point","coordinates":[-77.03161929279123,38.89452145232612]},"properties":{"OBJECTID":56679956,"ID":104,"ADDRESS":"14th & D St NW / Ronald Reagan Building","TERMINAL_NUMBER":"31231","LATITUDE":38.894514,"LONGITUDE":-77.031617,"INSTALLED":"YES","LOCKED":"NO","INSTALL_DATE":"2011-04-20T09:31:00.000Z","REMOVAL_DATE":null,"TEMPORARY_INSTALL":"NO","NUMBER_OF_BIKES":11,"NUMBER_OF_EMPTY_DOCKS":14,"X":397257.20836553,"Y":136296.74977779,"SE_ANNO_CAD_DATA":null}},{"type":"Feature","id":"56679957","geometry":{"type":"Point","coordinates":[-77.02232429047014,38.897331453750816]},"properties":{"OBJECTID":56679957,"ID":105,"ADDRESS":"7th & F St NW / National Portrait Gallery","TERMINAL_NUMBER":"31232","LATITUDE":38.897324,"LONGITUDE":-77.022322,"INSTALLED":"YES","LOCKED":"NO","INSTALL_DATE":"2011-04-29T16:29:00.000Z","REMOVAL_DATE":null,"TEMPORARY_INSTALL":"NO","NUMBER_OF_BIKES":15,"NUMBER_OF_EMPTY_DOCKS":4,"X":398063.63083408,"Y":136608.44384603,"SE_ANNO_CAD_DATA":null}},{"type":"Feature","id":"56679958","geometry":{"type":"Point","coordinates":[-77.03832429549308,38.90206845376486]},"properties":{"OBJECTID":56679958,"ID":106,"ADDRESS":"17th & K St NW / Farragut Square","TERMINAL_NUMBER":"31233","LATITUDE":38.902060999999996,"LONGITUDE":-77.038322,"INSTALLED":"YES","LOCKED":"NO","INSTALL_DATE":"2011-04-28T16:28:00.000Z","REMOVAL_DATE":null,"TEMPORARY_INSTALL":"NO","NUMBER_OF_BIKES":19,"NUMBER_OF_EMPTY_DOCKS":7,"X":396675.89775652,"Y":137134.74975929,"SE_ANNO_CAD_DATA":null}},{"type":"Feature","id":"56679959","geometry":{"type":"Point","coordinates":[-77.0447822976556,38.90891245499346]},"properties":{"OBJECTID":56679959,"ID":107,"ADDRESS":"20th & O St NW / Dupont South","TERMINAL_NUMBER":"31234","LATITUDE":38.908905,"LONGITUDE":-77.04478,"INSTALLED":"YES","LOCKED":"NO","INSTALL_DATE":"2012-02-10T01:00:00.000Z","REMOVAL_DATE":null,"TEMPORARY_INSTALL":"NO","NUMBER_OF_BIKES":0,"NUMBER_OF_EMPTY_DOCKS":19,"X":396116.0947985,"Y":137894.74424938,"SE_ANNO_CAD_DATA":null}},{"type":"Feature","id":"56679960","geometry":{"type":"Point","coordinates":[-77.0161082882957,38.89535145328556]},"properties":{"OBJECTID":56679960,"ID":108,"ADDRESS":"4th & D St NW / Judiciary Square","TERMINAL_NUMBER":"31621","LATITUDE":38.895344,"LONGITUDE":-77.016106,"INSTALLED":"YES","LOCKED":"NO","INSTALL_DATE":"2011-05-04T00:00:00.000Z","REMOVAL_DATE":null,"TEMPORARY_INSTALL":"NO","NUMBER_OF_BIKES":3,"NUMBER_OF_EMPTY_DOCKS":12,"X":398602.81213383,"Y":136388.53462906,"SE_ANNO_CAD_DATA":null}},{"type":"Feature","id":"56679961","geometry":{"type":"Point","coordinates":[-77.04360229675521,38.89230745184304]},"properties":{"OBJECTID":56679961,"ID":109,"ADDRESS":"19th St & Constitution Ave NW","TERMINAL_NUMBER":"31235","LATITUDE":38.8923,"LONGITUDE":-77.0436,"INSTALLED":"YES","LOCKED":"NO","INSTALL_DATE":"2010-10-20T16:38:00.000Z","REMOVAL_DATE":null,"TEMPORARY_INSTALL":"NO","NUMBER_OF_BIKES":7,"NUMBER_OF_EMPTY_DOCKS":26,"X":396217.55940232,"Y":136051.4066072,"SE_ANNO_CAD_DATA":null}},{"type":"Feature","id":"56679962","geometry":{"type":"Point","coordinates":[-77.07165430602132,38.90774745367049]},"properties":{"OBJECTID":56679962,"ID":110,"ADDRESS":"37th & O St NW / Georgetown University","TERMINAL_NUMBER":"31236","LATITUDE":38.90774,"LONGITUDE":-77.071652,"INSTALLED":"YES","LOCKED":"NO","INSTALL_DATE":"2010-10-25T16:13:00.000Z","REMOVAL_DATE":null,"TEMPORARY_INSTALL":"NO","NUMBER_OF_BIKES":8,"NUMBER_OF_EMPTY_DOCKS":15,"X":393785.30362802,"Y":137766.90607127,"SE_ANNO_CAD_DATA":null}},{"type":"Feature","id":"56679963","geometry":{"type":"Point","coordinates":[-76.99138528085672,38.899990455174674]},"properties":{"OBJECTID":56679963,"ID":111,"ADDRESS":"11th & H St NE","TERMINAL_NUMBER":"31614","LATITUDE":38.899983,"LONGITUDE":-76.991383,"INSTALLED":"YES","LOCKED":"NO","INSTALL_DATE":"2011-12-12T01:00:00.000Z","REMOVAL_DATE":null,"TEMPORARY_INSTALL":"NO","NUMBER_OF_BIKES":3,"NUMBER_OF_EMPTY_DOCKS":16,"X":400747.47205932,"Y":136903.41262551,"SE_ANNO_CAD_DATA":null}},{"type":"Feature","id":"56679964","geometry":{"type":"Point","coordinates":[-77.05348730018306,38.90383445386213]},"properties":{"OBJECTID":56679964,"ID":112,"ADDRESS":"25th St & Pennsylvania Ave NW","TERMINAL_NUMBER":"31237","LATITUDE":38.903827,"LONGITUDE":-77.053485,"INSTALLED":"YES","LOCKED":"NO","INSTALL_DATE":"2010-10-31T14:50:00.000Z","REMOVAL_DATE":null,"TEMPORARY_INSTALL":"NO","NUMBER_OF_BIKES":10,"NUMBER_OF_EMPTY_DOCKS":5,"X":395360.75356309,"Y":137331.45135022,"SE_ANNO_CAD_DATA":null}},{"type":"Feature","id":"56679965","geometry":{"type":"Point","coordinates":[-77.00493228512394,38.896967454020746]},"properties":{"OBJECTID":56679965,"ID":113,"ADDRESS":"Columbus Circle / Union Station","TERMINAL_NUMBER":"31623","LATITUDE":38.89696,"LONGITUDE":-77.00493,"INSTALLED":"YES","LOCKED":"NO","INSTALL_DATE":"2010-10-01T00:00:00.000Z","REMOVAL_DATE":null,"TEMPORARY_INSTALL":"NO","NUMBER_OF_BIKES":17,"NUMBER_OF_EMPTY_DOCKS":19,"X":399572.33452251,"Y":136567.81175487,"SE_ANNO_CAD_DATA":null}},{"type":"Feature","id":"56679966","geometry":{"type":"Point","coordinates":[-77.00989028665335,38.89745345370835]},"properties":{"OBJECTID":56679966,"ID":114,"ADDRESS":"North Capitol St & F St NW","TERMINAL_NUMBER":"31624","LATITUDE":38.897445999999995,"LONGITUDE":-77.00988799999999,"INSTALLED":"YES","LOCKED":"NO","INSTALL_DATE":"2010-10-26T15:52:00.000Z","REMOVAL_DATE":null,"TEMPORARY_INSTALL":"NO","NUMBER_OF_BIKES":15,"NUMBER_OF_EMPTY_DOCKS":5,"X":399142.24595819,"Y":136621.79652993,"SE_ANNO_CAD_DATA":null}},{"type":"Feature","id":"56679967","geometry":{"type":"Point","coordinates":[-77.02713929209361,38.90561445470699]},"properties":{"OBJECTID":56679967,"ID":115,"ADDRESS":"11th & M St NW","TERMINAL_NUMBER":"31266","LATITUDE":38.905606999999996,"LONGITUDE":-77.027137,"INSTALLED":"YES","LOCKED":"NO","INSTALL_DATE":"2013-04-03T09:28:00.000Z","REMOVAL_DATE":null,"TEMPORARY_INSTALL":"NO","NUMBER_OF_BIKES":0,"NUMBER_OF_EMPTY_DOCKS":19,"X":397646.21680293,"Y":137528.03659292,"SE_ANNO_CAD_DATA":null}},{"type":"Feature","id":"56679968","geometry":{"type":"Point","coordinates":[-77.07033630620586,38.92258845684326]},"properties":{"OBJECTID":56679968,"ID":116,"ADDRESS":"36th & Calvert St NW / Glover Park","TERMINAL_NUMBER":"31304","LATITUDE":38.922581,"LONGITUDE":-77.070334,"INSTALLED":"YES","LOCKED":"NO","INSTALL_DATE":"2010-11-08T13:17:00.000Z","REMOVAL_DATE":null,"TEMPORARY_INSTALL":"NO","NUMBER_OF_BIKES":2,"NUMBER_OF_EMPTY_DOCKS":13,"X":393900.88891277,"Y":139414.29118167,"SE_ANNO_CAD_DATA":null}},{"type":"Feature","id":"56679969","geometry":{"type":"Point","coordinates":[-77.03182529332071,38.89807645318416]},"properties":{"OBJECTID":56679969,"ID":117,"ADDRESS":"14th & G St NW","TERMINAL_NUMBER":"31238","LATITUDE":38.898069,"LONGITUDE":-77.031823,"INSTALLED":"YES","LOCKED":"NO","INSTALL_DATE":"2010-11-08T13:29:00.000Z","REMOVAL_DATE":null,"TEMPORARY_INSTALL":"NO","NUMBER_OF_BIKES":13,"NUMBER_OF_EMPTY_DOCKS":10,"X":397239.47532464,"Y":136691.38919879,"SE_ANNO_CAD_DATA":null}},{"type":"Feature","id":"56679970","geometry":{"type":"Point","coordinates":[-77.05053929566799,38.844022441655994]},"properties":{"OBJECTID":56679970,"ID":118,"ADDRESS":"Potomac Ave & 35th St S","TERMINAL_NUMBER":"31052","LATITUDE":38.844015,"LONGITUDE":-77.05053699999999,"INSTALLED":"YES","LOCKED":"NO","INSTALL_DATE":"2012-10-24T11:36:00.000Z","REMOVAL_DATE":null,"TEMPORARY_INSTALL":"NO","NUMBER_OF_BIKES":14,"NUMBER_OF_EMPTY_DOCKS":9,"X":395612.7850665,"Y":130691.72525249,"SE_ANNO_CAD_DATA":null}},{"type":"Feature","id":"56679971","geometry":{"type":"Point","coordinates":[-77.04657229675166,38.884127450012926]},"properties":{"OBJECTID":56679971,"ID":124,"ADDRESS":"Ohio Dr & West Basin Dr SW / MLK & FDR Memorials","TERMINAL_NUMBER":"31240","LATITUDE":38.884119999999996,"LONGITUDE":-77.04657,"INSTALLED":"YES","LOCKED":"NO","INSTALL_DATE":"2012-03-16T09:36:00.000Z","REMOVAL_DATE":null,"TEMPORARY_INSTALL":"NO","NUMBER_OF_BIKES":9,"NUMBER_OF_EMPTY_DOCKS":14,"X":395959.43911633,"Y":135143.49030238,"SE_ANNO_CAD_DATA":null}},{"type":"Feature","id":"56679972","geometry":{"type":"Point","coordinates":[-77.02697729154988,38.89786445331664]},"properties":{"OBJECTID":56679972,"ID":125,"ADDRESS":"11th & F St NW","TERMINAL_NUMBER":"31262","LATITUDE":38.897856999999995,"LONGITUDE":-77.026975,"INSTALLED":"YES","LOCKED":"NO","INSTALL_DATE":"2013-02-04T08:44:00.000Z","REMOVAL_DATE":null,"TEMPORARY_INSTALL":"NO","NUMBER_OF_BIKES":11,"NUMBER_OF_EMPTY_DOCKS":4,"X":397660.01398863,"Y":136667.72007441,"SE_ANNO_CAD_DATA":null}},{"type":"Feature","id":"56679973","geometry":{"type":"Point","coordinates":[-77.04988429857114,38.89611145208117]},"properties":{"OBJECTID":56679973,"ID":126,"ADDRESS":"23rd & E St NW","TERMINAL_NUMBER":"31260","LATITUDE":38.896104,"LONGITUDE":-77.049882,"INSTALLED":"YES","LOCKED":"NO","INSTALL_DATE":"2013-01-31T13:14:00.000Z","REMOVAL_DATE":null,"TEMPORARY_INSTALL":"NO","NUMBER_OF_BIKES":1,"NUMBER_OF_EMPTY_DOCKS":18,"X":395672.80643508,"Y":136473.95963994,"SE_ANNO_CAD_DATA":null}},{"type":"Feature","id":"56679974","geometry":{"type":"Point","coordinates":[-77.07099530532975,38.89732245181542]},"properties":{"OBJECTID":56679974,"ID":127,"ADDRESS":"Lynn & 19th St North","TERMINAL_NUMBER":"31014","LATITUDE":38.897315,"LONGITUDE":-77.070993,"INSTALLED":"YES","LOCKED":"NO","INSTALL_DATE":"2011-04-16T08:31:00.000Z","REMOVAL_DATE":null,"TEMPORARY_INSTALL":"NO","NUMBER_OF_BIKES":3,"NUMBER_OF_EMPTY_DOCKS":15,"X":393841.56164086,"Y":136609.60267156,"SE_ANNO_CAD_DATA":null}},{"type":"Feature","id":"56679975","geometry":{"type":"Point","coordinates":[-77.07230730513801,38.8946074512128]},"properties":{"OBJECTID":56679975,"ID":128,"ADDRESS":"Rosslyn Metro / Wilson Blvd & Ft Myer Dr","TERMINAL_NUMBER":"31015","LATITUDE":38.894600000000004,"LONGITUDE":-77.072305,"INSTALLED":"YES","LOCKED":"NO","INSTALL_DATE":"2011-04-16T08:32:00.000Z","REMOVAL_DATE":null,"TEMPORARY_INSTALL":"NO","NUMBER_OF_BIKES":10,"NUMBER_OF_EMPTY_DOCKS":5,"X":393727.51072873,"Y":136308.30554726,"SE_ANNO_CAD_DATA":null}},{"type":"Feature","id":"56679976","geometry":{"type":"Point","coordinates":[-77.0767033064467,38.89365545085009]},"properties":{"OBJECTID":56679976,"ID":129,"ADDRESS":"Clarendon Blvd & Pierce St","TERMINAL_NUMBER":"31016","LATITUDE":38.893648,"LONGITUDE":-77.076701,"INSTALLED":"YES","LOCKED":"NO","INSTALL_DATE":"2011-04-16T08:46:00.000Z","REMOVAL_DATE":null,"TEMPORARY_INSTALL":"NO","NUMBER_OF_BIKES":3,"NUMBER_OF_EMPTY_DOCKS":7,"X":393346.06716787,"Y":136202.93729799,"SE_ANNO_CAD_DATA":null}},{"type":"Feature","id":"56679977","geometry":{"type":"Point","coordinates":[-77.08460230911012,38.891703450153734]},"properties":{"OBJECTID":56679977,"ID":130,"ADDRESS":"Court House Metro / Wilson Blvd & N Uhle St","TERMINAL_NUMBER":"31017","LATITUDE":38.891695999999996,"LONGITUDE":-77.08460000000001,"INSTALLED":"YES","LOCKED":"NO","INSTALL_DATE":"2011-11-10T10:00:00.000Z","REMOVAL_DATE":null,"TEMPORARY_INSTALL":"NO","NUMBER_OF_BIKES":0,"NUMBER_OF_EMPTY_DOCKS":15,"X":392660.61582418,"Y":135986.85542381,"SE_ANNO_CAD_DATA":null}},{"type":"Feature","id":"56679978","geometry":{"type":"Point","coordinates":[-77.07937730759909,38.89217145054131]},"properties":{"OBJECTID":56679978,"ID":131,"ADDRESS":"N Rhodes & 16th St N","TERMINAL_NUMBER":"31018","LATITUDE":38.892164,"LONGITUDE":-77.079375,"INSTALLED":"YES","LOCKED":"NO","INSTALL_DATE":"2011-04-16T10:18:00.000Z","REMOVAL_DATE":null,"TEMPORARY_INSTALL":"NO","NUMBER_OF_BIKES":5,"NUMBER_OF_EMPTY_DOCKS":6,"X":393113.95026708,"Y":136038.39997542,"SE_ANNO_CAD_DATA":null}},{"type":"Feature","id":"56679979","geometry":{"type":"Point","coordinates":[-76.95210526642035,38.8655974497828]},"properties":{"OBJECTID":56679979,"ID":132,"ADDRESS":"Fairfax Village","TERMINAL_NUMBER":"31706","LATITUDE":38.86559,"LONGITUDE":-76.952103,"INSTALLED":"YES","LOCKED":"NO","INSTALL_DATE":"2011-07-27T09:00:00.000Z","REMOVAL_DATE":null,"TEMPORARY_INSTALL":"NO","NUMBER_OF_BIKES":8,"NUMBER_OF_EMPTY_DOCKS":7,"X":404156.7748465,"Y":133086.5806781,"SE_ANNO_CAD_DATA":null}},{"type":"Feature","id":"56679980","geometry":{"type":"Point","coordinates":[-77.04656929718395,38.892466451849096]},"properties":{"OBJECTID":56679980,"ID":133,"ADDRESS":"21st St & Constitution Ave NW","TERMINAL_NUMBER":"31261","LATITUDE":38.892458999999995,"LONGITUDE":-77.046567,"INSTALLED":"YES","LOCKED":"NO","INSTALL_DATE":"2013-01-31T09:32:00.000Z","REMOVAL_DATE":null,"TEMPORARY_INSTALL":"NO","NUMBER_OF_BIKES":2,"NUMBER_OF_EMPTY_DOCKS":13,"X":395960.17160973,"Y":136069.18397282,"SE_ANNO_CAD_DATA":null}},{"type":"Feature","id":"56679981","geometry":{"type":"Point","coordinates":[-77.09250231087948,38.88900744895604]},"properties":{"OBJECTID":56679981,"ID":134,"ADDRESS":"Wilson Blvd & N Edgewood St","TERMINAL_NUMBER":"31019","LATITUDE":38.889,"LONGITUDE":-77.0925,"INSTALLED":"YES","LOCKED":"NO","INSTALL_DATE":"2011-11-11T08:53:00.000Z","REMOVAL_DATE":null,"TEMPORARY_INSTALL":"NO","NUMBER_OF_BIKES":7,"NUMBER_OF_EMPTY_DOCKS":8,"X":391974.9565944,"Y":135688.24327618,"SE_ANNO_CAD_DATA":null}},{"type":"Feature","id":"56679982","geometry":{"type":"Point","coordinates":[-77.0436822979555,38.92067645748008]},"properties":{"OBJECTID":56679982,"ID":135,"ADDRESS":"Columbia Rd & Belmont St NW","TERMINAL_NUMBER":"31113","LATITUDE":38.920669,"LONGITUDE":-77.04368,"INSTALLED":"YES","LOCKED":"NO","INSTALL_DATE":"2011-11-18T10:05:00.000Z","REMOVAL_DATE":null,"TEMPORARY_INSTALL":"NO","NUMBER_OF_BIKES":1,"NUMBER_OF_EMPTY_DOCKS":17,"X":396212.12597888,"Y":139200.59967871,"SE_ANNO_CAD_DATA":null}},{"type":"Feature","id":"56679983","geometry":{"type":"Point","coordinates":[-77.03878729573661,38.90660945447248]},"properties":{"OBJECTID":56679983,"ID":136,"ADDRESS":"17th & Rhode Island Ave NW","TERMINAL_NUMBER":"31239","LATITUDE":38.906602,"LONGITUDE":-77.03878499999999,"INSTALLED":"YES","LOCKED":"NO","INSTALL_DATE":"2011-11-18T14:10:00.000Z","REMOVAL_DATE":null,"TEMPORARY_INSTALL":"NO","NUMBER_OF_BIKES":6,"NUMBER_OF_EMPTY_DOCKS":17,"X":396635.95067876,"Y":137638.854468,"SE_ANNO_CAD_DATA":null}},{"type":"Feature","id":"56679984","geometry":{"type":"Point","coordinates":[-77.03250229388715,38.90590745502728]},"properties":{"OBJECTID":56679984,"ID":137,"ADDRESS":"Thomas Circle","TERMINAL_NUMBER":"31241","LATITUDE":38.9059,"LONGITUDE":-77.0325,"INSTALLED":"YES","LOCKED":"NO","INSTALL_DATE":"2011-11-19T10:52:00.000Z","REMOVAL_DATE":null,"TEMPORARY_INSTALL":"NO","NUMBER_OF_BIKES":2,"NUMBER_OF_EMPTY_DOCKS":31,"X":397181.05762675,"Y":137560.71391672,"SE_ANNO_CAD_DATA":null}},{"type":"Feature","id":"56679985","geometry":{"type":"Point","coordinates":[-77.08890230994893,38.890407449468384]},"properties":{"OBJECTID":56679985,"ID":138,"ADDRESS":"Wilson Blvd & Franklin Rd","TERMINAL_NUMBER":"31020","LATITUDE":38.8904,"LONGITUDE":-77.08890000000001,"INSTALLED":"YES","LOCKED":"NO","INSTALL_DATE":"2011-12-01T01:00:00.000Z","REMOVAL_DATE":null,"TEMPORARY_INSTALL":"NO","NUMBER_OF_BIKES":9,"NUMBER_OF_EMPTY_DOCKS":2,"X":392287.43385198,"Y":135843.34382808,"SE_ANNO_CAD_DATA":null}},{"type":"Feature","id":"56679986","geometry":{"type":"Point","coordinates":[-77.09308231124629,38.88810744875452]},"properties":{"OBJECTID":56679986,"ID":139,"ADDRESS":"Clarendon Blvd & N Fillmore St","TERMINAL_NUMBER":"31021","LATITUDE":38.8881,"LONGITUDE":-77.09308,"INSTALLED":"YES","LOCKED":"NO","INSTALL_DATE":"2011-11-22T12:58:00.000Z","REMOVAL_DATE":null,"TEMPORARY_INSTALL":"NO","NUMBER_OF_BIKES":1,"NUMBER_OF_EMPTY_DOCKS":14,"X":391924.53555307,"Y":135588.38746348,"SE_ANNO_CAD_DATA":null}},{"type":"Feature","id":"56679987","geometry":{"type":"Point","coordinates":[-77.09487731172095,38.88786744894776]},"properties":{"OBJECTID":56679987,"ID":140,"ADDRESS":"Clarendon Metro / Wilson Blvd & N Highland St","TERMINAL_NUMBER":"31022","LATITUDE":38.887859999999996,"LONGITUDE":-77.094875,"INSTALLED":"YES","LOCKED":"NO","INSTALL_DATE":"2011-11-22T13:38:00.000Z","REMOVAL_DATE":null,"TEMPORARY_INSTALL":"NO","NUMBER_OF_BIKES":6,"NUMBER_OF_EMPTY_DOCKS":11,"X":391768.77673525,"Y":135561.90592921,"SE_ANNO_CAD_DATA":null}},{"type":"Feature","id":"56679988","geometry":{"type":"Point","coordinates":[-77.04154129627464,38.89968745297959]},"properties":{"OBJECTID":56679988,"ID":141,"ADDRESS":"18th St & Pennsylvania Ave NW","TERMINAL_NUMBER":"31242","LATITUDE":38.89968,"LONGITUDE":-77.041539,"INSTALLED":"YES","LOCKED":"NO","INSTALL_DATE":"2011-11-29T09:00:00.000Z","REMOVAL_DATE":null,"TEMPORARY_INSTALL":"NO","NUMBER_OF_BIKES":10,"NUMBER_OF_EMPTY_DOCKS":5,"X":396396.73056387,"Y":136870.56171733,"SE_ANNO_CAD_DATA":null}},{"type":"Feature","id":"56679989","geometry":{"type":"Point","coordinates":[-77.01894128875293,38.887306451389755]},"properties":{"OBJECTID":56679989,"ID":142,"ADDRESS":"Maryland & Independence Ave SW","TERMINAL_NUMBER":"31243","LATITUDE":38.887299,"LONGITUDE":-77.018939,"INSTALLED":"YES","LOCKED":"NO","INSTALL_DATE":"2012-01-27T08:57:00.000Z","REMOVAL_DATE":null,"TEMPORARY_INSTALL":"NO","NUMBER_OF_BIKES":15,"NUMBER_OF_EMPTY_DOCKS":22,"X":398356.86545321,"Y":135495.5237101,"SE_ANNO_CAD_DATA":null}},{"type":"Feature","id":"56679990","geometry":{"type":"Point","coordinates":[-77.01744728773706,38.88412745115963]},"properties":{"OBJECTID":56679990,"ID":143,"ADDRESS":"4th & E St SW","TERMINAL_NUMBER":"31244","LATITUDE":38.884119999999996,"LONGITUDE":-77.017445,"INSTALLED":"YES","LOCKED":"NO","INSTALL_DATE":"2011-12-01T12:28:00.000Z","REMOVAL_DATE":null,"TEMPORARY_INSTALL":"NO","NUMBER_OF_BIKES":6,"NUMBER_OF_EMPTY_DOCKS":13,"X":398486.41642165,"Y":135142.60429562,"SE_ANNO_CAD_DATA":null}},{"type":"Feature","id":"56679991","geometry":{"type":"Point","coordinates":[-77.00183028314723,38.881192451148756]},"properties":{"OBJECTID":56679991,"ID":144,"ADDRESS":"3rd & G St SE","TERMINAL_NUMBER":"31625","LATITUDE":38.881184999999995,"LONGITUDE":-77.001828,"INSTALLED":"YES","LOCKED":"NO","INSTALL_DATE":"2011-11-30T10:01:00.000Z","REMOVAL_DATE":null,"TEMPORARY_INSTALL":"NO","NUMBER_OF_BIKES":0,"NUMBER_OF_EMPTY_DOCKS":19,"X":399841.39039203,"Y":134816.65373315,"SE_ANNO_CAD_DATA":null}},{"type":"Feature","id":"56679992","geometry":{"type":"Point","coordinates":[-77.02215729089174,38.9127264568638]},"properties":{"OBJECTID":56679992,"ID":145,"ADDRESS":"7th & R St NW / Shaw Library","TERMINAL_NUMBER":"31245","LATITUDE":38.912718999999996,"LONGITUDE":-77.022155,"INSTALLED":"YES","LOCKED":"NO","INSTALL_DATE":"2011-11-29T12:12:00.000Z","REMOVAL_DATE":null,"TEMPORARY_INSTALL":"NO","NUMBER_OF_BIKES":12,"NUMBER_OF_EMPTY_DOCKS":3,"X":398078.53235602,"Y":138317.41022085,"SE_ANNO_CAD_DATA":null}},{"type":"Feature","id":"56679993","geometry":{"type":"Point","coordinates":[-77.02510229344038,38.941807462543316]},"properties":{"OBJECTID":56679993,"ID":146,"ADDRESS":"9th & Upshur St NW","TERMINAL_NUMBER":"31404","LATITUDE":38.9418,"LONGITUDE":-77.02510000000001,"INSTALLED":"YES","LOCKED":"NO","INSTALL_DATE":"2011-12-06T14:08:00.000Z","REMOVAL_DATE":null,"TEMPORARY_INSTALL":"NO","NUMBER_OF_BIKES":6,"NUMBER_OF_EMPTY_DOCKS":9,"X":397824.00484445,"Y":141545.71647896,"SE_ANNO_CAD_DATA":null}},{"type":"Feature","id":"56679994","geometry":{"type":"Point","coordinates":[-77.0122912879345,38.915424457543295]},"properties":{"OBJECTID":56679994,"ID":147,"ADDRESS":"1st & Rhode Island Ave NW","TERMINAL_NUMBER":"31506","LATITUDE":38.915417,"LONGITUDE":-77.012289,"INSTALLED":"YES","LOCKED":"NO","INSTALL_DATE":"2011-12-06T09:33:00.000Z","REMOVAL_DATE":null,"TEMPORARY_INSTALL":"NO","NUMBER_OF_BIKES":8,"NUMBER_OF_EMPTY_DOCKS":7,"X":398934.23503524,"Y":138616.74918417,"SE_ANNO_CAD_DATA":null}},{"type":"Feature","id":"56679995","geometry":{"type":"Point","coordinates":[-77.02344229245516,38.92816345966726]},"properties":{"OBJECTID":56679995,"ID":148,"ADDRESS":"Columbia Rd & Georgia Ave NW","TERMINAL_NUMBER":"31115","LATITUDE":38.928156,"LONGITUDE":-77.02344,"INSTALLED":"YES","LOCKED":"NO","INSTALL_DATE":"2011-12-07T01:00:00.000Z","REMOVAL_DATE":null,"TEMPORARY_INSTALL":"NO","NUMBER_OF_BIKES":8,"NUMBER_OF_EMPTY_DOCKS":11,"X":397967.52637558,"Y":140031.07512482,"SE_ANNO_CAD_DATA":null}},{"type":"Feature","id":"56679996","geometry":{"type":"Point","coordinates":[-77.04062229711217,38.917768456940784]},"properties":{"OBJECTID":56679996,"ID":149,"ADDRESS":"California St & Florida Ave NW","TERMINAL_NUMBER":"31116","LATITUDE":38.917761,"LONGITUDE":-77.04061999999999,"INSTALLED":"YES","LOCKED":"NO","INSTALL_DATE":"2011-12-13T01:00:00.000Z","REMOVAL_DATE":null,"TEMPORARY_INSTALL":"NO","NUMBER_OF_BIKES":16,"NUMBER_OF_EMPTY_DOCKS":3,"X":396477.34162756,"Y":138877.66474866,"SE_ANNO_CAD_DATA":null}},{"type":"Feature","id":"56679997","geometry":{"type":"Point","coordinates":[-76.9372322639443,38.88994245489496]},"properties":{"OBJECTID":56679997,"ID":150,"ADDRESS":"Benning Rd & East Capitol St NE / Benning Rd Metro","TERMINAL_NUMBER":"31707","LATITUDE":38.889935,"LONGITUDE":-76.93723,"INSTALLED":"YES","LOCKED":"NO","INSTALL_DATE":"2011-12-20T14:06:00.000Z","REMOVAL_DATE":null,"TEMPORARY_INSTALL":"NO","NUMBER_OF_BIKES":5,"NUMBER_OF_EMPTY_DOCKS":14,"X":405445.68021157,"Y":135789.84203017,"SE_ANNO_CAD_DATA":null}},{"type":"Feature","id":"56679998","geometry":{"type":"Point","coordinates":[-77.05560130253843,38.93028945900826]},"properties":{"OBJECTID":56679998,"ID":151,"ADDRESS":"3000 Connecticut Ave NW / National Zoo","TERMINAL_NUMBER":"31307","LATITUDE":38.930282,"LONGITUDE":-77.055599,"INSTALLED":"YES","LOCKED":"NO","INSTALL_DATE":"2011-12-21T15:44:00.000Z","REMOVAL_DATE":null,"TEMPORARY_INSTALL":"NO","NUMBER_OF_BIKES":4,"NUMBER_OF_EMPTY_DOCKS":11,"X":395179.17550824,"Y":140268.28654973,"SE_ANNO_CAD_DATA":null}},{"type":"Feature","id":"56679999","geometry":{"type":"Point","coordinates":[-76.96012227109041,38.89655145571784]},"properties":{"OBJECTID":56679999,"ID":152,"ADDRESS":"Anacostia Ave & Benning Rd NE / River Terrace","TERMINAL_NUMBER":"31708","LATITUDE":38.896544,"LONGITUDE":-76.96012,"INSTALLED":"YES","LOCKED":"NO","INSTALL_DATE":"2011-12-20T13:32:00.000Z","REMOVAL_DATE":null,"TEMPORARY_INSTALL":"NO","NUMBER_OF_BIKES":13,"NUMBER_OF_EMPTY_DOCKS":2,"X":403459.51281234,"Y":136522.37655488,"SE_ANNO_CAD_DATA":null}},{"type":"Feature","id":"56680000","geometry":{"type":"Point","coordinates":[-77.05688930121144,38.90513345388432]},"properties":{"OBJECTID":56680000,"ID":153,"ADDRESS":"M St & Pennsylvania Ave NW","TERMINAL_NUMBER":"31246","LATITUDE":38.905125999999996,"LONGITUDE":-77.056887,"INSTALLED":"YES","LOCKED":"NO","INSTALL_DATE":"2011-12-21T12:38:00.000Z","REMOVAL_DATE":null,"TEMPORARY_INSTALL":"NO","NUMBER_OF_BIKES":18,"NUMBER_OF_EMPTY_DOCKS":1,"X":395065.75667991,"Y":137475.82923774,"SE_ANNO_CAD_DATA":null}},{"type":"Feature","id":"56680001","geometry":{"type":"Point","coordinates":[-76.98357127739098,38.88732745318744]},"properties":{"OBJECTID":56680001,"ID":154,"ADDRESS":"15th St & Massachusetts Ave SE","TERMINAL_NUMBER":"31626","LATITUDE":38.887319999999995,"LONGITUDE":-76.983569,"INSTALLED":"YES","LOCKED":"NO","INSTALL_DATE":"2011-12-22T10:44:00.000Z","REMOVAL_DATE":null,"TEMPORARY_INSTALL":"NO","NUMBER_OF_BIKES":5,"NUMBER_OF_EMPTY_DOCKS":10,"X":401425.5417836,"Y":135497.81271975,"SE_ANNO_CAD_DATA":null}},{"type":"Feature","id":"56680002","geometry":{"type":"Point","coordinates":[-76.98782527608432,38.84471844435192]},"properties":{"OBJECTID":56680002,"ID":155,"ADDRESS":"Congress Heights Metro","TERMINAL_NUMBER":"31806","LATITUDE":38.844711,"LONGITUDE":-76.98782299999999,"INSTALLED":"YES","LOCKED":"NO","INSTALL_DATE":"2011-12-22T15:13:00.000Z","REMOVAL_DATE":null,"TEMPORARY_INSTALL":"NO","NUMBER_OF_BIKES":7,"NUMBER_OF_EMPTY_DOCKS":8,"X":401057.09871953,"Y":130767.84222794,"SE_ANNO_CAD_DATA":null}},{"type":"Feature","id":"56680003","geometry":{"type":"Point","coordinates":[-77.10773731483724,38.87640044625088]},"properties":{"OBJECTID":56680003,"ID":156,"ADDRESS":"N Quincy St & Glebe Rd","TERMINAL_NUMBER":"31035","LATITUDE":38.876393,"LONGITUDE":-77.10773499999999,"INSTALLED":"YES","LOCKED":"NO","INSTALL_DATE":"2012-04-27T14:50:00.000Z","REMOVAL_DATE":null,"TEMPORARY_INSTALL":"NO","NUMBER_OF_BIKES":6,"NUMBER_OF_EMPTY_DOCKS":5,"X":390651.55922442,"Y":134290.22004351,"SE_ANNO_CAD_DATA":null}},{"type":"Feature","id":"56680004","geometry":{"type":"Point","coordinates":[-77.10396231434692,38.88150744708052]},"properties":{"OBJECTID":56680004,"ID":157,"ADDRESS":"Wilson Blvd & N Oakland St","TERMINAL_NUMBER":"31033","LATITUDE":38.8815,"LONGITUDE":-77.10396,"INSTALLED":"YES","LOCKED":"NO","INSTALL_DATE":"2012-04-25T17:02:00.000Z","REMOVAL_DATE":null,"TEMPORARY_INSTALL":"NO","NUMBER_OF_BIKES":5,"NUMBER_OF_EMPTY_DOCKS":6,"X":390979.77106772,"Y":134856.75570639,"SE_ANNO_CAD_DATA":null}},{"type":"Feature","id":"56680005","geometry":{"type":"Point","coordinates":[-77.0865043097316,38.896930451151185]},"properties":{"OBJECTID":56680005,"ID":158,"ADDRESS":"N Veitch  & 20th St N","TERMINAL_NUMBER":"31029","LATITUDE":38.896923,"LONGITUDE":-77.086502,"INSTALLED":"YES","LOCKED":"NO","INSTALL_DATE":"2012-04-23T16:36:00.000Z","REMOVAL_DATE":null,"TEMPORARY_INSTALL":"NO","NUMBER_OF_BIKES":9,"NUMBER_OF_EMPTY_DOCKS":6,"X":392496.15967477,"Y":136567.24810974,"SE_ANNO_CAD_DATA":null}},{"type":"Feature","id":"56680006","geometry":{"type":"Point","coordinates":[-77.02674229171838,38.902687454488486]},"properties":{"OBJECTID":56680006,"ID":159,"ADDRESS":"11th & K St NW","TERMINAL_NUMBER":"31263","LATITUDE":38.90268,"LONGITUDE":-77.02673999999999,"INSTALLED":"YES","LOCKED":"NO","INSTALL_DATE":"2013-02-15T09:49:00.000Z","REMOVAL_DATE":null,"TEMPORARY_INSTALL":"NO","NUMBER_OF_BIKES":2,"NUMBER_OF_EMPTY_DOCKS":17,"X":397680.55623394,"Y":137203.10574079,"SE_ANNO_CAD_DATA":null}},{"type":"Feature","id":"56680007","geometry":{"type":"Point","coordinates":[-77.0977473127438,38.88580844862309]},"properties":{"OBJECTID":56680007,"ID":160,"ADDRESS":"Fairfax Dr & Wilson Blvd","TERMINAL_NUMBER":"31023","LATITUDE":38.885801,"LONGITUDE":-77.097745,"INSTALLED":"YES","LOCKED":"NO","INSTALL_DATE":"2012-04-27T12:58:00.000Z","REMOVAL_DATE":null,"TEMPORARY_INSTALL":"NO","NUMBER_OF_BIKES":6,"NUMBER_OF_EMPTY_DOCKS":5,"X":391519.53488356,"Y":135333.60378223,"SE_ANNO_CAD_DATA":null}},{"type":"Feature","id":"56680008","geometry":{"type":"Point","coordinates":[-77.0781093070265,38.896022451326786]},"properties":{"OBJECTID":56680008,"ID":161,"ADDRESS":"Key Blvd & N Quinn St","TERMINAL_NUMBER":"31027","LATITUDE":38.896015,"LONGITUDE":-77.078107,"INSTALLED":"YES","LOCKED":"NO","INSTALL_DATE":"2012-04-23T11:38:00.000Z","REMOVAL_DATE":null,"TEMPORARY_INSTALL":"NO","NUMBER_OF_BIKES":6,"NUMBER_OF_EMPTY_DOCKS":5,"X":393224.3192932,"Y":136465.79635473,"SE_ANNO_CAD_DATA":null}},{"type":"Feature","id":"56680009","geometry":{"type":"Point","coordinates":[-77.00600628386987,38.878617450119805]},"properties":{"OBJECTID":56680009,"ID":162,"ADDRESS":"1st & K St SE","TERMINAL_NUMBER":"31628","LATITUDE":38.878609999999995,"LONGITUDE":-77.00600399999999,"INSTALLED":"YES","LOCKED":"NO","INSTALL_DATE":"2012-02-08T12:07:00.000Z","REMOVAL_DATE":null,"TEMPORARY_INSTALL":"NO","NUMBER_OF_BIKES":6,"NUMBER_OF_EMPTY_DOCKS":9,"X":399479.03366972,"Y":134530.82464742,"SE_ANNO_CAD_DATA":null}},{"type":"Feature","id":"56680010","geometry":{"type":"Point","coordinates":[-77.07727330837955,38.9226564563723]},"properties":{"OBJECTID":56680010,"ID":163,"ADDRESS":"39th & Calvert St NW / Stoddert","TERMINAL_NUMBER":"31306","LATITUDE":38.922649,"LONGITUDE":-77.077271,"INSTALLED":"YES","LOCKED":"NO","INSTALL_DATE":"2012-02-10T14:25:00.000Z","REMOVAL_DATE":null,"TEMPORARY_INSTALL":"NO","NUMBER_OF_BIKES":10,"NUMBER_OF_EMPTY_DOCKS":9,"X":393299.34379144,"Y":139422.32608169,"SE_ANNO_CAD_DATA":null}},{"type":"Feature","id":"56680011","geometry":{"type":"Point","coordinates":[-77.01245928928273,38.928750460271395]},"properties":{"OBJECTID":56680011,"ID":164,"ADDRESS":"1st & Washington Hospital Center NW","TERMINAL_NUMBER":"31507","LATITUDE":38.928743,"LONGITUDE":-77.012457,"INSTALLED":"YES","LOCKED":"NO","INSTALL_DATE":"2012-02-13T13:19:00.000Z","REMOVAL_DATE":null,"TEMPORARY_INSTALL":"NO","NUMBER_OF_BIKES":0,"NUMBER_OF_EMPTY_DOCKS":15,"X":398919.86707704,"Y":140096.04992889,"SE_ANNO_CAD_DATA":null}},{"type":"Feature","id":"56680012","geometry":{"type":"Point","coordinates":[-77.10315031394259,38.882795447483566]},"properties":{"OBJECTID":56680012,"ID":165,"ADDRESS":"Virginia Square Metro / N Monroe St & 9th St N","TERMINAL_NUMBER":"31024","LATITUDE":38.882788,"LONGITUDE":-77.10314799999999,"INSTALLED":"YES","LOCKED":"NO","INSTALL_DATE":"2012-02-17T16:03:00.000Z","REMOVAL_DATE":null,"TEMPORARY_INSTALL":"NO","NUMBER_OF_BIKES":5,"NUMBER_OF_EMPTY_DOCKS":14,"X":391050.38685989,"Y":134999.65356888,"SE_ANNO_CAD_DATA":null}},{"type":"Feature","id":"56680013","geometry":{"type":"Point","coordinates":[-77.10783231532336,38.883977447678035]},"properties":{"OBJECTID":56680013,"ID":166,"ADDRESS":"Central Library / N Quincy St & 10th St N","TERMINAL_NUMBER":"31025","LATITUDE":38.88397,"LONGITUDE":-77.10782999999999,"INSTALLED":"YES","LOCKED":"NO","INSTALL_DATE":"2012-02-17T11:52:00.000Z","REMOVAL_DATE":null,"TEMPORARY_INSTALL":"NO","NUMBER_OF_BIKES":3,"NUMBER_OF_EMPTY_DOCKS":8,"X":390644.30934888,"Y":135131.33399185,"SE_ANNO_CAD_DATA":null}},{"type":"Feature","id":"56680014","geometry":{"type":"Point","coordinates":[-77.09348731116606,38.88474144846778]},"properties":{"OBJECTID":56680014,"ID":167,"ADDRESS":"Washington Blvd & 10th St N","TERMINAL_NUMBER":"31026","LATITUDE":38.884734,"LONGITUDE":-77.093485,"INSTALLED":"YES","LOCKED":"NO","INSTALL_DATE":"2012-02-22T16:59:00.000Z","REMOVAL_DATE":null,"TEMPORARY_INSTALL":"NO","NUMBER_OF_BIKES":5,"NUMBER_OF_EMPTY_DOCKS":10,"X":391889.01580315,"Y":135214.77148076,"SE_ANNO_CAD_DATA":null}},{"type":"Feature","id":"56680015","geometry":{"type":"Point","coordinates":[-77.03243129271158,38.88856045141189]},"properties":{"OBJECTID":56680015,"ID":168,"ADDRESS":"Jefferson Dr & 14th St SW","TERMINAL_NUMBER":"31247","LATITUDE":38.888553,"LONGITUDE":-77.032429,"INSTALLED":"YES","LOCKED":"NO","INSTALL_DATE":"2012-03-16T11:31:00.000Z","REMOVAL_DATE":null,"TEMPORARY_INSTALL":"NO","NUMBER_OF_BIKES":16,"NUMBER_OF_EMPTY_DOCKS":6,"X":397186.53186857,"Y":135635.05674241,"SE_ANNO_CAD_DATA":null}},{"type":"Feature","id":"56680016","geometry":{"type":"Point","coordinates":[-77.02858229161087,38.88877445142395]},"properties":{"OBJECTID":56680016,"ID":169,"ADDRESS":"Smithsonian / Jefferson Dr & 12th St SW","TERMINAL_NUMBER":"31248","LATITUDE":38.888767,"LONGITUDE":-77.02857999999999,"INSTALLED":"YES","LOCKED":"NO","INSTALL_DATE":"2012-04-02T08:27:00.000Z","REMOVAL_DATE":null,"TEMPORARY_INSTALL":"NO","NUMBER_OF_BIKES":15,"NUMBER_OF_EMPTY_DOCKS":8,"X":397520.46999936,"Y":135658.70082429,"SE_ANNO_CAD_DATA":null}},{"type":"Feature","id":"56680017","geometry":{"type":"Point","coordinates":[-77.12070231956214,38.878877445844175]},"properties":{"OBJECTID":56680017,"ID":170,"ADDRESS":"George Mason Dr & Wilson Blvd","TERMINAL_NUMBER":"31036","LATITUDE":38.87887,"LONGITUDE":-77.1207,"INSTALLED":"YES","LOCKED":"NO","INSTALL_DATE":"2012-04-30T13:03:00.000Z","REMOVAL_DATE":null,"TEMPORARY_INSTALL":"NO","NUMBER_OF_BIKES":7,"NUMBER_OF_EMPTY_DOCKS":8,"X":389526.91727648,"Y":134566.59315276,"SE_ANNO_CAD_DATA":null}},{"type":"Feature","id":"56680018","geometry":{"type":"Point","coordinates":[-77.01994228945162,38.89458045298144]},"properties":{"OBJECTID":56680018,"ID":171,"ADDRESS":"6th St & Indiana Ave NW","TERMINAL_NUMBER":"31264","LATITUDE":38.894573,"LONGITUDE":-77.01993999999999,"INSTALLED":"YES","LOCKED":"NO","INSTALL_DATE":"2013-04-03T07:54:00.000Z","REMOVAL_DATE":null,"TEMPORARY_INSTALL":"NO","NUMBER_OF_BIKES":6,"NUMBER_OF_EMPTY_DOCKS":13,"X":398270.19576117,"Y":136303.01319219,"SE_ANNO_CAD_DATA":null}},{"type":"Feature","id":"56680019","geometry":{"type":"Point","coordinates":[-77.08604730947403,38.89324845045285]},"properties":{"OBJECTID":56680019,"ID":172,"ADDRESS":"N Veitch & Key Blvd","TERMINAL_NUMBER":"31028","LATITUDE":38.893240999999996,"LONGITUDE":-77.086045,"INSTALLED":"YES","LOCKED":"NO","INSTALL_DATE":"2012-04-23T13:43:00.000Z","REMOVAL_DATE":null,"TEMPORARY_INSTALL":"NO","NUMBER_OF_BIKES":10,"NUMBER_OF_EMPTY_DOCKS":1,"X":392535.41805911,"Y":136158.47966922,"SE_ANNO_CAD_DATA":null}},{"type":"Feature","id":"56680020","geometry":{"type":"Point","coordinates":[-77.0890083103715,38.895937450576284]},"properties":{"OBJECTID":56680020,"ID":173,"ADDRESS":"N Adams St & Lee Hwy","TERMINAL_NUMBER":"31030","LATITUDE":38.89593,"LONGITUDE":-77.089006,"INSTALLED":"YES","LOCKED":"NO","INSTALL_DATE":"2012-04-25T11:51:00.000Z","REMOVAL_DATE":null,"TEMPORARY_INSTALL":"NO","NUMBER_OF_BIKES":6,"NUMBER_OF_EMPTY_DOCKS":9,"X":392278.83629398,"Y":136457.22607845,"SE_ANNO_CAD_DATA":null}},{"type":"Feature","id":"56680021","geometry":{"type":"Point","coordinates":[-77.08095230766985,38.89054745014339]},"properties":{"OBJECTID":56680021,"ID":174,"ADDRESS":"15th & N Scott St","TERMINAL_NUMBER":"31031","LATITUDE":38.89054,"LONGITUDE":-77.08095,"INSTALLED":"YES","LOCKED":"NO","INSTALL_DATE":"2012-04-25T09:55:00.000Z","REMOVAL_DATE":null,"TEMPORARY_INSTALL":"NO","NUMBER_OF_BIKES":6,"NUMBER_OF_EMPTY_DOCKS":5,"X":392977.15386494,"Y":135858.24328923,"SE_ANNO_CAD_DATA":null}},{"type":"Feature","id":"56680022","geometry":{"type":"Point","coordinates":[-77.09113131024259,38.880841447648336]},"properties":{"OBJECTID":56680022,"ID":175,"ADDRESS":"Washington Blvd & 7th St N","TERMINAL_NUMBER":"31032","LATITUDE":38.880834,"LONGITUDE":-77.091129,"INSTALLED":"YES","LOCKED":"NO","INSTALL_DATE":"2012-04-30T10:00:00.000Z","REMOVAL_DATE":null,"TEMPORARY_INSTALL":"NO","NUMBER_OF_BIKES":7,"NUMBER_OF_EMPTY_DOCKS":4,"X":392092.9958064,"Y":134781.63505667,"SE_ANNO_CAD_DATA":null}},{"type":"Feature","id":"56680023","geometry":{"type":"Point","coordinates":[-77.1117703167318,38.88105144697442]},"properties":{"OBJECTID":56680023,"ID":176,"ADDRESS":"Ballston Metro / N Stuart & 9th St N","TERMINAL_NUMBER":"31037","LATITUDE":38.881043999999996,"LONGITUDE":-77.111768,"INSTALLED":"YES","LOCKED":"NO","INSTALL_DATE":"2012-04-30T16:24:00.000Z","REMOVAL_DATE":null,"TEMPORARY_INSTALL":"NO","NUMBER_OF_BIKES":1,"NUMBER_OF_EMPTY_DOCKS":18,"X":390302.23781937,"Y":134806.93673806,"SE_ANNO_CAD_DATA":null}},{"type":"Feature","id":"56680024","geometry":{"type":"Point","coordinates":[-77.10936831629024,38.882636447153224]},"properties":{"OBJECTID":56680024,"ID":177,"ADDRESS":"N Randolph St & Fairfax Dr","TERMINAL_NUMBER":"31034","LATITUDE":38.882629,"LONGITUDE":-77.109366,"INSTALLED":"YES","LOCKED":"NO","INSTALL_DATE":"2012-04-27T12:03:00.000Z","REMOVAL_DATE":null,"TEMPORARY_INSTALL":"NO","NUMBER_OF_BIKES":5,"NUMBER_OF_EMPTY_DOCKS":6,"X":390510.86258655,"Y":134982.63132615,"SE_ANNO_CAD_DATA":null}},{"type":"Feature","id":"56680025","geometry":{"type":"Point","coordinates":[-77.03741529381776,38.879826449472986]},"properties":{"OBJECTID":56680025,"ID":178,"ADDRESS":"Jefferson Memorial","TERMINAL_NUMBER":"31249","LATITUDE":38.879819,"LONGITUDE":-77.037413,"INSTALLED":"YES","LOCKED":"NO","INSTALL_DATE":"2012-05-02T10:33:00.000Z","REMOVAL_DATE":null,"TEMPORARY_INSTALL":"NO","NUMBER_OF_BIKES":15,"NUMBER_OF_EMPTY_DOCKS":8,"X":396753.73375318,"Y":134665.68092888,"SE_ANNO_CAD_DATA":null}},{"type":"Feature","id":"56680026","geometry":{"type":"Point","coordinates":[-76.98524027662853,38.86661844883928]},"properties":{"OBJECTID":56680026,"ID":179,"ADDRESS":"Good Hope Rd & 14th St SE","TERMINAL_NUMBER":"31803","LATITUDE":38.866611,"LONGITUDE":-76.985238,"INSTALLED":"YES","LOCKED":"NO","INSTALL_DATE":"2012-05-02T13:51:00.000Z","REMOVAL_DATE":null,"TEMPORARY_INSTALL":"NO","NUMBER_OF_BIKES":7,"NUMBER_OF_EMPTY_DOCKS":8,"X":401281.11228246,"Y":133198.93229397,"SE_ANNO_CAD_DATA":null}},{"type":"Feature","id":"56680027","geometry":{"type":"Point","coordinates":[-77.11681931836101,38.88392844753515]},"properties":{"OBJECTID":56680027,"ID":180,"ADDRESS":"Glebe Rd & 11th St N","TERMINAL_NUMBER":"31038","LATITUDE":38.883921,"LONGITUDE":-77.116817,"INSTALLED":"YES","LOCKED":"NO","INSTALL_DATE":"2012-05-17T11:40:00.000Z","REMOVAL_DATE":null,"TEMPORARY_INSTALL":"NO","NUMBER_OF_BIKES":4,"NUMBER_OF_EMPTY_DOCKS":7,"X":389864.56068615,"Y":135126.85403179,"SE_ANNO_CAD_DATA":null}},{"type":"Feature","id":"56680028","geometry":{"type":"Point","coordinates":[-77.10767531502248,38.88015844684791]},"properties":{"OBJECTID":56680028,"ID":181,"ADDRESS":"N Quincy St & Wilson Blvd","TERMINAL_NUMBER":"31039","LATITUDE":38.880151,"LONGITUDE":-77.10767299999999,"INSTALLED":"YES","LOCKED":"NO","INSTALL_DATE":"2012-05-29T10:27:00.000Z","REMOVAL_DATE":null,"TEMPORARY_INSTALL":"NO","NUMBER_OF_BIKES":0,"NUMBER_OF_EMPTY_DOCKS":11,"X":390657.43115972,"Y":134707.37993664,"SE_ANNO_CAD_DATA":null}},{"type":"Feature","id":"56680029","geometry":{"type":"Point","coordinates":[-77.10108231394392,38.88462344804306]},"properties":{"OBJECTID":56680029,"ID":182,"ADDRESS":"Fairfax Dr & Kenmore St","TERMINAL_NUMBER":"31040","LATITUDE":38.884616,"LONGITUDE":-77.10108,"INSTALLED":"YES","LOCKED":"NO","INSTALL_DATE":"2013-04-24T10:48:00.000Z","REMOVAL_DATE":null,"TEMPORARY_INSTALL":"NO","NUMBER_OF_BIKES":5,"NUMBER_OF_EMPTY_DOCKS":6,"X":391230.0410303,"Y":135202.37480622,"SE_ANNO_CAD_DATA":null}},{"type":"Feature","id":"56680030","geometry":{"type":"Point","coordinates":[-76.9941022817028,38.90509745594602]},"properties":{"OBJECTID":56680030,"ID":183,"ADDRESS":"Gallaudet / 8th St & Florida Ave NE","TERMINAL_NUMBER":"31508","LATITUDE":38.90509,"LONGITUDE":-76.9941,"INSTALLED":"YES","LOCKED":"NO","INSTALL_DATE":"2012-07-11T15:07:00.000Z","REMOVAL_DATE":null,"TEMPORARY_INSTALL":"NO","NUMBER_OF_BIKES":6,"NUMBER_OF_EMPTY_DOCKS":13,"X":400511.75228339,"Y":137470.31208052,"SE_ANNO_CAD_DATA":null}},{"type":"Feature","id":"56680031","geometry":{"type":"Point","coordinates":[-77.04479129775896,38.90359145381321]},"properties":{"OBJECTID":56680031,"ID":185,"ADDRESS":"20th & L St NW","TERMINAL_NUMBER":"31250","LATITUDE":38.903583999999995,"LONGITUDE":-77.044789,"INSTALLED":"YES","LOCKED":"NO","INSTALL_DATE":"2012-06-25T09:55:00.000Z","REMOVAL_DATE":null,"TEMPORARY_INSTALL":"NO","NUMBER_OF_BIKES":0,"NUMBER_OF_EMPTY_DOCKS":18,"X":396115.02439795,"Y":137304.07038622,"SE_ANNO_CAD_DATA":null}},{"type":"Feature","id":"56680032","geometry":{"type":"Point","coordinates":[-77.02840229228049,38.90382645468772]},"properties":{"OBJECTID":56680032,"ID":186,"ADDRESS":"12th & L St NW","TERMINAL_NUMBER":"31251","LATITUDE":38.903819,"LONGITUDE":-77.0284,"INSTALLED":"YES","LOCKED":"NO","INSTALL_DATE":"2012-06-25T11:54:00.000Z","REMOVAL_DATE":null,"TEMPORARY_INSTALL":"NO","NUMBER_OF_BIKES":1,"NUMBER_OF_EMPTY_DOCKS":18,"X":397536.60617,"Y":137329.58742481,"SE_ANNO_CAD_DATA":null}},{"type":"Feature","id":"56680033","geometry":{"type":"Point","coordinates":[-77.04656629791609,38.90154645328306]},"properties":{"OBJECTID":56680033,"ID":187,"ADDRESS":"21st St & Pennsylvania Ave NW","TERMINAL_NUMBER":"31252","LATITUDE":38.901539,"LONGITUDE":-77.046564,"INSTALLED":"YES","LOCKED":"NO","INSTALL_DATE":"2012-06-27T11:33:00.000Z","REMOVAL_DATE":null,"TEMPORARY_INSTALL":"NO","NUMBER_OF_BIKES":5,"NUMBER_OF_EMPTY_DOCKS":14,"X":395960.94600021,"Y":137077.13595446,"SE_ANNO_CAD_DATA":null}},{"type":"Feature","id":"56680034","geometry":{"type":"Point","coordinates":[-77.04337229728276,38.90221145353167]},"properties":{"OBJECTID":56680034,"ID":188,"ADDRESS":"19th & K St NW","TERMINAL_NUMBER":"31253","LATITUDE":38.902204,"LONGITUDE":-77.04337,"INSTALLED":"YES","LOCKED":"NO","INSTALL_DATE":"2012-06-27T08:58:00.000Z","REMOVAL_DATE":null,"TEMPORARY_INSTALL":"NO","NUMBER_OF_BIKES":12,"NUMBER_OF_EMPTY_DOCKS":11,"X":396238.03496422,"Y":137150.81982996,"SE_ANNO_CAD_DATA":null}},{"type":"Feature","id":"56680035","geometry":{"type":"Point","coordinates":[-77.04036528992583,38.80313143383611]},"properties":{"OBJECTID":56680035,"ID":189,"ADDRESS":"Prince St & Union St","TERMINAL_NUMBER":"31041","LATITUDE":38.803124,"LONGITUDE":-77.040363,"INSTALLED":"YES","LOCKED":"NO","INSTALL_DATE":"2012-08-27T08:27:00.000Z","REMOVAL_DATE":null,"TEMPORARY_INSTALL":"NO","NUMBER_OF_BIKES":12,"NUMBER_OF_EMPTY_DOCKS":7,"X":396494.00267968,"Y":126152.11518297,"SE_ANNO_CAD_DATA":null}},{"type":"Feature","id":"56680036","geometry":{"type":"Point","coordinates":[-77.04336529113127,38.80472543384139]},"properties":{"OBJECTID":56680036,"ID":190,"ADDRESS":"Market Square / King St & Royal St","TERMINAL_NUMBER":"31042","LATITUDE":38.804718,"LONGITUDE":-77.043363,"INSTALLED":"YES","LOCKED":"NO","INSTALL_DATE":"2012-08-27T10:28:00.000Z","REMOVAL_DATE":null,"TEMPORARY_INSTALL":"NO","NUMBER_OF_BIKES":0,"NUMBER_OF_EMPTY_DOCKS":15,"X":396233.50175862,"Y":126329.17864326,"SE_ANNO_CAD_DATA":null}},{"type":"Feature","id":"56680037","geometry":{"type":"Point","coordinates":[-77.04466629168847,38.81075043544073]},"properties":{"OBJECTID":56680037,"ID":191,"ADDRESS":"Saint Asaph St & Pendleton  St","TERMINAL_NUMBER":"31043","LATITUDE":38.810742999999995,"LONGITUDE":-77.044664,"INSTALLED":"YES","LOCKED":"NO","INSTALL_DATE":"2012-08-27T12:28:00.000Z","REMOVAL_DATE":null,"TEMPORARY_INSTALL":"NO","NUMBER_OF_BIKES":10,"NUMBER_OF_EMPTY_DOCKS":5,"X":396120.82449056,"Y":126998.04615804,"SE_ANNO_CAD_DATA":null}},{"type":"Feature","id":"56680038","geometry":{"type":"Point","coordinates":[-77.04988529295366,38.805324433842316]},"properties":{"OBJECTID":56680038,"ID":192,"ADDRESS":"King St & Patrick St","TERMINAL_NUMBER":"31044","LATITUDE":38.805316999999995,"LONGITUDE":-77.049883,"INSTALLED":"YES","LOCKED":"NO","INSTALL_DATE":"2012-08-31T15:55:00.000Z","REMOVAL_DATE":null,"TEMPORARY_INSTALL":"NO","NUMBER_OF_BIKES":4,"NUMBER_OF_EMPTY_DOCKS":11,"X":395667.21274018,"Y":126395.96062967,"SE_ANNO_CAD_DATA":null}},{"type":"Feature","id":"56680039","geometry":{"type":"Point","coordinates":[-77.03353229411341,38.90200745402672]},"properties":{"OBJECTID":56680039,"ID":193,"ADDRESS":"15th & K St NW","TERMINAL_NUMBER":"31254","LATITUDE":38.902,"LONGITUDE":-77.03353,"INSTALLED":"YES","LOCKED":"NO","INSTALL_DATE":"2012-07-02T08:42:00.000Z","REMOVAL_DATE":null,"TEMPORARY_INSTALL":"NO","NUMBER_OF_BIKES":12,"NUMBER_OF_EMPTY_DOCKS":7,"X":397091.55982715,"Y":137127.8146862,"SE_ANNO_CAD_DATA":null}},{"type":"Feature","id":"56680040","geometry":{"type":"Point","coordinates":[-77.05293229433144,38.805655433926866]},"properties":{"OBJECTID":56680040,"ID":194,"ADDRESS":"Commerce St & Fayette St","TERMINAL_NUMBER":"31045","LATITUDE":38.805648,"LONGITUDE":-77.05293,"INSTALLED":"YES","LOCKED":"NO","INSTALL_DATE":"2012-08-31T15:56:00.000Z","REMOVAL_DATE":null,"TEMPORARY_INSTALL":"NO","NUMBER_OF_BIKES":7,"NUMBER_OF_EMPTY_DOCKS":8,"X":395402.57471448,"Y":126432.85274011,"SE_ANNO_CAD_DATA":null}},{"type":"Feature","id":"56680041","geometry":{"type":"Point","coordinates":[-77.05027829391591,38.81146343486242]},"properties":{"OBJECTID":56680041,"ID":195,"ADDRESS":"Henry St & Pendleton St","TERMINAL_NUMBER":"31046","LATITUDE":38.811456,"LONGITUDE":-77.050276,"INSTALLED":"YES","LOCKED":"NO","INSTALL_DATE":"2012-08-31T15:56:00.000Z","REMOVAL_DATE":null,"TEMPORARY_INSTALL":"NO","NUMBER_OF_BIKES":7,"NUMBER_OF_EMPTY_DOCKS":10,"X":395633.45246838,"Y":127077.44715252,"SE_ANNO_CAD_DATA":null}},{"type":"Feature","id":"56680042","geometry":{"type":"Point","coordinates":[-77.05281029473561,38.814584435415256]},"properties":{"OBJECTID":56680042,"ID":196,"ADDRESS":"Braddock Rd Metro","TERMINAL_NUMBER":"31047","LATITUDE":38.814577,"LONGITUDE":-77.052808,"INSTALLED":"YES","LOCKED":"NO","INSTALL_DATE":"2012-08-31T15:56:00.000Z","REMOVAL_DATE":null,"TEMPORARY_INSTALL":"NO","NUMBER_OF_BIKES":5,"NUMBER_OF_EMPTY_DOCKS":14,"X":395413.7448307,"Y":127424.02227572,"SE_ANNO_CAD_DATA":null}},{"type":"Feature","id":"56680043","geometry":{"type":"Point","coordinates":[-77.06072229610997,38.80577443371559]},"properties":{"OBJECTID":56680043,"ID":197,"ADDRESS":"King St Metro","TERMINAL_NUMBER":"31048","LATITUDE":38.805766999999996,"LONGITUDE":-77.06072,"INSTALLED":"YES","LOCKED":"NO","INSTALL_DATE":"2012-08-31T15:57:00.000Z","REMOVAL_DATE":null,"TEMPORARY_INSTALL":"NO","NUMBER_OF_BIKES":10,"NUMBER_OF_EMPTY_DOCKS":9,"X":394725.95516096,"Y":126446.48367158,"SE_ANNO_CAD_DATA":null}},{"type":"Feature","id":"56680044","geometry":{"type":"Point","coordinates":[-77.05152229971902,38.906607454455965]},"properties":{"OBJECTID":56680044,"ID":198,"ADDRESS":"24th & N St NW","TERMINAL_NUMBER":"31255","LATITUDE":38.906600000000005,"LONGITUDE":-77.05152,"INSTALLED":"YES","LOCKED":"NO","INSTALL_DATE":"2012-07-06T07:49:00.000Z","REMOVAL_DATE":null,"TEMPORARY_INSTALL":"NO","NUMBER_OF_BIKES":10,"NUMBER_OF_EMPTY_DOCKS":5,"X":395531.3698104,"Y":137639.17879202,"SE_ANNO_CAD_DATA":null}},{"type":"Feature","id":"56680045","geometry":{"type":"Point","coordinates":[-77.0260662912924,38.89592145321484]},"properties":{"OBJECTID":56680045,"ID":199,"ADDRESS":"10th & E St NW","TERMINAL_NUMBER":"31256","LATITUDE":38.895914,"LONGITUDE":-77.02606399999999,"INSTALLED":"YES","LOCKED":"NO","INSTALL_DATE":"2012-07-12T12:15:00.000Z","REMOVAL_DATE":null,"TEMPORARY_INSTALL":"NO","NUMBER_OF_BIKES":8,"NUMBER_OF_EMPTY_DOCKS":7,"X":397738.97843831,"Y":136452.00867097,"SE_ANNO_CAD_DATA":null}},{"type":"Feature","id":"56680046","geometry":{"type":"Point","coordinates":[-77.0489132985917,38.90088745320197]},"properties":{"OBJECTID":56680046,"ID":200,"ADDRESS":"22nd & I St NW / Foggy Bottom","TERMINAL_NUMBER":"31257","LATITUDE":38.90088,"LONGITUDE":-77.04891099999999,"INSTALLED":"YES","LOCKED":"NO","INSTALL_DATE":"2012-07-16T08:37:00.000Z","REMOVAL_DATE":null,"TEMPORARY_INSTALL":"NO","NUMBER_OF_BIKES":9,"NUMBER_OF_EMPTY_DOCKS":6,"X":395757.32337487,"Y":137004.08812648,"SE_ANNO_CAD_DATA":null}},{"type":"Feature","id":"56680047","geometry":{"type":"Point","coordinates":[-77.11390731775839,38.883676447120195]},"properties":{"OBJECTID":56680047,"ID":201,"ADDRESS":"Utah St & 11th St N","TERMINAL_NUMBER":"31049","LATITUDE":38.883669,"LONGITUDE":-77.113905,"INSTALLED":"YES","LOCKED":"NO","INSTALL_DATE":"2012-07-17T11:37:00.000Z","REMOVAL_DATE":null,"TEMPORARY_INSTALL":"NO","NUMBER_OF_BIKES":4,"NUMBER_OF_EMPTY_DOCKS":7,"X":390117.18065021,"Y":135098.56083427,"SE_ANNO_CAD_DATA":null}},{"type":"Feature","id":"56680048","geometry":{"type":"Point","coordinates":[-77.08777230955563,38.88496844831165]},"properties":{"OBJECTID":56680048,"ID":202,"ADDRESS":"Barton St & 10th St N","TERMINAL_NUMBER":"31050","LATITUDE":38.884961,"LONGITUDE":-77.08776999999999,"INSTALLED":"YES","LOCKED":"NO","INSTALL_DATE":"2012-09-04T11:17:00.000Z","REMOVAL_DATE":null,"TEMPORARY_INSTALL":"NO","NUMBER_OF_BIKES":1,"NUMBER_OF_EMPTY_DOCKS":10,"X":392384.88706428,"Y":135239.47796436,"SE_ANNO_CAD_DATA":null}},{"type":"Feature","id":"56680049","geometry":{"type":"Point","coordinates":[-77.077296306544,38.88937244988457]},"properties":{"OBJECTID":56680049,"ID":203,"ADDRESS":"Arlington Blvd & N Queen St","TERMINAL_NUMBER":"31051","LATITUDE":38.889365,"LONGITUDE":-77.077294,"INSTALLED":"YES","LOCKED":"NO","INSTALL_DATE":"2012-09-04T12:39:00.000Z","REMOVAL_DATE":null,"TEMPORARY_INSTALL":"NO","NUMBER_OF_BIKES":1,"NUMBER_OF_EMPTY_DOCKS":10,"X":393294.22093326,"Y":135727.5342443,"SE_ANNO_CAD_DATA":null}},{"type":"Feature","id":"56680050","geometry":{"type":"Point","coordinates":[-77.04942829790835,38.88825845051557]},"properties":{"OBJECTID":56680050,"ID":204,"ADDRESS":"Lincoln Memorial","TERMINAL_NUMBER":"31258","LATITUDE":38.888251,"LONGITUDE":-77.049426,"INSTALLED":"YES","LOCKED":"NO","INSTALL_DATE":"2012-10-03T08:46:00.000Z","REMOVAL_DATE":null,"TEMPORARY_INSTALL":"NO","NUMBER_OF_BIKES":17,"NUMBER_OF_EMPTY_DOCKS":8,"X":395711.89180633,"Y":135602.19351478,"SE_ANNO_CAD_DATA":null}},{"type":"Feature","id":"56680051","geometry":{"type":"Point","coordinates":[-77.04513029729507,38.89472945235135]},"properties":{"OBJECTID":56680051,"ID":206,"ADDRESS":"20th St & Virginia Ave NW","TERMINAL_NUMBER":"31259","LATITUDE":38.894722,"LONGITUDE":-77.04512799999999,"INSTALLED":"YES","LOCKED":"NO","INSTALL_DATE":"2013-01-31T11:43:00.000Z","REMOVAL_DATE":null,"TEMPORARY_INSTALL":"NO","NUMBER_OF_BIKES":9,"NUMBER_OF_EMPTY_DOCKS":6,"X":396085.13339566,"Y":136320.33209869,"SE_ANNO_CAD_DATA":null}},{"type":"Feature","id":"56680052","geometry":{"type":"Point","coordinates":[-77.0186792889959,38.90093745444616]},"properties":{"OBJECTID":56680052,"ID":207,"ADDRESS":"5th St & Massachusetts Ave NW","TERMINAL_NUMBER":"31265","LATITUDE":38.900929999999995,"LONGITUDE":-77.018677,"INSTALLED":"YES","LOCKED":"NO","INSTALL_DATE":"2013-05-06T08:14:00.000Z","REMOVAL_DATE":null,"TEMPORARY_INSTALL":"NO","NUMBER_OF_BIKES":3,"NUMBER_OF_EMPTY_DOCKS":16,"X":398379.90597158,"Y":137008.66767719,"SE_ANNO_CAD_DATA":null}},{"type":"Feature","id":"56680053","geometry":{"type":"Point","coordinates":[-77.07708031004871,38.943844461047924]},"properties":{"OBJECTID":56680053,"ID":208,"ADDRESS":"39th & Veazey St NW","TERMINAL_NUMBER":"31308","LATITUDE":38.943836999999995,"LONGITUDE":-77.077078,"INSTALLED":"YES","LOCKED":"NO","INSTALL_DATE":"2013-02-11T11:56:00.000Z","REMOVAL_DATE":null,"TEMPORARY_INSTALL":"NO","NUMBER_OF_BIKES":9,"NUMBER_OF_EMPTY_DOCKS":6,"X":393318.06595366,"Y":141774.36334986,"SE_ANNO_CAD_DATA":null}},{"type":"Feature","id":"56680054","geometry":{"type":"Point","coordinates":[-77.0824283122852,38.95481946271035]},"properties":{"OBJECTID":56680054,"ID":209,"ADDRESS":"Fessenden St & Wisconsin Ave NW","TERMINAL_NUMBER":"31309","LATITUDE":38.954812,"LONGITUDE":-77.082426,"INSTALLED":"YES","LOCKED":"NO","INSTALL_DATE":"2013-02-11T09:16:00.000Z","REMOVAL_DATE":null,"TEMPORARY_INSTALL":"NO","NUMBER_OF_BIKES":7,"NUMBER_OF_EMPTY_DOCKS":8,"X":392855.54507199,"Y":142993.09207601,"SE_ANNO_CAD_DATA":null}},{"type":"Feature","id":"56680055","geometry":{"type":"Point","coordinates":[-77.00304328494954,38.90571445579747]},"properties":{"OBJECTID":56680055,"ID":210,"ADDRESS":"M St & Delaware Ave NE","TERMINAL_NUMBER":"31627","LATITUDE":38.905707,"LONGITUDE":-77.003041,"INSTALLED":"YES","LOCKED":"NO","INSTALL_DATE":"2013-02-15T08:05:00.000Z","REMOVAL_DATE":null,"TEMPORARY_INSTALL":"NO","NUMBER_OF_BIKES":10,"NUMBER_OF_EMPTY_DOCKS":13,"X":399736.23301134,"Y":137538.79194884,"SE_ANNO_CAD_DATA":null}},{"type":"Feature","id":"56680056","geometry":{"type":"Point","coordinates":[-77.08032130577993,38.86384044477242]},"properties":{"OBJECTID":56680056,"ID":211,"ADDRESS":"Columbia Pike & S Courthouse Rd","TERMINAL_NUMBER":"31053","LATITUDE":38.863833,"LONGITUDE":-77.080319,"INSTALLED":"YES","LOCKED":"NO","INSTALL_DATE":"2013-03-28T10:57:00.000Z","REMOVAL_DATE":null,"TEMPORARY_INSTALL":"NO","NUMBER_OF_BIKES":6,"NUMBER_OF_EMPTY_DOCKS":9,"X":393029.28804682,"Y":132893.51685242,"SE_ANNO_CAD_DATA":null}},{"type":"Feature","id":"56680057","geometry":{"type":"Point","coordinates":[-77.08673530772853,38.85781044316238]},"properties":{"OBJECTID":56680057,"ID":212,"ADDRESS":"Walter Reed Community Center / Walter Reed Dr & 16th St S","TERMINAL_NUMBER":"31054","LATITUDE":38.857803,"LONGITUDE":-77.086733,"INSTALLED":"YES","LOCKED":"NO","INSTALL_DATE":"2013-03-28T06:23:00.000Z","REMOVAL_DATE":null,"TEMPORARY_INSTALL":"NO","NUMBER_OF_BIKES":7,"NUMBER_OF_EMPTY_DOCKS":4,"X":392471.99507726,"Y":132224.65268195,"SE_ANNO_CAD_DATA":null}},{"type":"Feature","id":"56680058","geometry":{"type":"Point","coordinates":[-77.06927730176801,38.84622944153339]},"properties":{"OBJECTID":56680058,"ID":213,"ADDRESS":"28th St S & S Meade St","TERMINAL_NUMBER":"31055","LATITUDE":38.846222,"LONGITUDE":-77.06927499999999,"INSTALLED":"YES","LOCKED":"NO","INSTALL_DATE":"2013-03-28T09:12:00.000Z","REMOVAL_DATE":null,"TEMPORARY_INSTALL":"NO","NUMBER_OF_BIKES":7,"NUMBER_OF_EMPTY_DOCKS":8,"X":393986.28914822,"Y":130937.78505054,"SE_ANNO_CAD_DATA":null}},{"type":"Feature","id":"56680059","geometry":{"type":"Point","coordinates":[-77.04157329729324,38.9188164568687]},"properties":{"OBJECTID":56680059,"ID":214,"ADDRESS":"18th St & Wyoming Ave NW","TERMINAL_NUMBER":"31114","LATITUDE":38.918808999999996,"LONGITUDE":-77.04157099999999,"INSTALLED":"YES","LOCKED":"NO","INSTALL_DATE":"2013-04-03T11:35:00.000Z","REMOVAL_DATE":null,"TEMPORARY_INSTALL":"NO","NUMBER_OF_BIKES":9,"NUMBER_OF_EMPTY_DOCKS":14,"X":396394.92173743,"Y":138994.03865119,"SE_ANNO_CAD_DATA":null}},{"type":"Feature","id":"56680060","geometry":{"type":"Point","coordinates":[-77.0198172932465,38.956602465261334]},"properties":{"OBJECTID":56680060,"ID":215,"ADDRESS":"5th & Kennedy St NW","TERMINAL_NUMBER":"31403","LATITUDE":38.956595,"LONGITUDE":-77.019815,"INSTALLED":"YES","LOCKED":"NO","INSTALL_DATE":"2013-04-12T10:37:00.000Z","REMOVAL_DATE":null,"TEMPORARY_INSTALL":"NO","NUMBER_OF_BIKES":9,"NUMBER_OF_EMPTY_DOCKS":6,"X":398282.53401468,"Y":143187.98240505,"SE_ANNO_CAD_DATA":null}},{"type":"Feature","id":"56680061","geometry":{"type":"Point","coordinates":[-77.02733529488617,38.949669464009446]},"properties":{"OBJECTID":56680061,"ID":216,"ADDRESS":"Georgia Ave & Emerson St NW","TERMINAL_NUMBER":"31405","LATITUDE":38.949662,"LONGITUDE":-77.027333,"INSTALLED":"YES","LOCKED":"NO","INSTALL_DATE":"2013-04-12T12:19:00.000Z","REMOVAL_DATE":null,"TEMPORARY_INSTALL":"NO","NUMBER_OF_BIKES":9,"NUMBER_OF_EMPTY_DOCKS":10,"X":397630.68061866,"Y":142418.5244828,"SE_ANNO_CAD_DATA":null}},{"type":"Feature","id":"56680062","geometry":{"type":"Point","coordinates":[-77.03265429643582,38.94202346221352]},"properties":{"OBJECTID":56680062,"ID":217,"ADDRESS":"14th & Upshur St NW","TERMINAL_NUMBER":"31406","LATITUDE":38.942015999999995,"LONGITUDE":-77.032652,"INSTALLED":"YES","LOCKED":"NO","INSTALL_DATE":"2013-04-12T15:27:00.000Z","REMOVAL_DATE":null,"TEMPORARY_INSTALL":"NO","NUMBER_OF_BIKES":4,"NUMBER_OF_EMPTY_DOCKS":15,"X":397169.30765214,"Y":141569.90148908,"SE_ANNO_CAD_DATA":null}},{"type":"Feature","id":"56680063","geometry":{"type":"Point","coordinates":[-77.03294929684938,38.95643946480492]},"properties":{"OBJECTID":56680063,"ID":218,"ADDRESS":"14th St & Colorado Ave NW","TERMINAL_NUMBER":"31407","LATITUDE":38.956432,"LONGITUDE":-77.032947,"INSTALLED":"YES","LOCKED":"NO","INSTALL_DATE":"2013-04-12T16:35:00.000Z","REMOVAL_DATE":null,"TEMPORARY_INSTALL":"NO","NUMBER_OF_BIKES":12,"NUMBER_OF_EMPTY_DOCKS":7,"X":397144.31085359,"Y":143170.21683512,"SE_ANNO_CAD_DATA":null}},{"type":"Feature","id":"56680064","geometry":{"type":"Point","coordinates":[-77.07510630311235,38.847984441581524]},"properties":{"OBJECTID":56680064,"ID":219,"ADDRESS":"S Troy St & 26th St S","TERMINAL_NUMBER":"31056","LATITUDE":38.847977,"LONGITUDE":-77.075104,"INSTALLED":"YES","LOCKED":"NO","INSTALL_DATE":"2013-04-23T10:04:00.000Z","REMOVAL_DATE":null,"TEMPORARY_INSTALL":"NO","NUMBER_OF_BIKES":5,"NUMBER_OF_EMPTY_DOCKS":6,"X":393480.43841302,"Y":131133.00243544,"SE_ANNO_CAD_DATA":null}},{"type":"Feature","id":"56680065","geometry":{"type":"Point","coordinates":[-77.08593330669157,38.84440744047982]},"properties":{"OBJECTID":56680065,"ID":220,"ADDRESS":"S Four Mile Run Dr & S Shirlington Rd","TERMINAL_NUMBER":"31057","LATITUDE":38.8444,"LONGITUDE":-77.085931,"INSTALLED":"YES","LOCKED":"NO","INSTALL_DATE":"2013-04-23T11:00:00.000Z","REMOVAL_DATE":null,"TEMPORARY_INSTALL":"NO","NUMBER_OF_BIKES":5,"NUMBER_OF_EMPTY_DOCKS":6,"X":392540.20426708,"Y":130736.7595577,"SE_ANNO_CAD_DATA":null}},{"type":"Feature","id":"56680066","geometry":{"type":"Point","coordinates":[-77.09586231083452,38.86079644359084]},"properties":{"OBJECTID":56680066,"ID":221,"ADDRESS":"S Oakland St & Columbia Pike","TERMINAL_NUMBER":"31058","LATITUDE":38.860789,"LONGITUDE":-77.09586,"INSTALLED":"YES","LOCKED":"NO","INSTALL_DATE":"2013-04-23T12:43:00.000Z","REMOVAL_DATE":null,"TEMPORARY_INSTALL":"NO","NUMBER_OF_BIKES":5,"NUMBER_OF_EMPTY_DOCKS":6,"X":391680.16396318,"Y":132556.91235096,"SE_ANNO_CAD_DATA":null}},{"type":"Feature","id":"56680067","geometry":{"type":"Point","coordinates":[-77.09429730823507,38.83522043821668]},"properties":{"OBJECTID":56680067,"ID":222,"ADDRESS":"S Abingdon St & 36th St S","TERMINAL_NUMBER":"31059","LATITUDE":38.835212999999996,"LONGITUDE":-77.094295,"INSTALLED":"YES","LOCKED":"NO","INSTALL_DATE":"2013-04-23T13:55:00.000Z","REMOVAL_DATE":null,"TEMPORARY_INSTALL":"NO","NUMBER_OF_BIKES":8,"NUMBER_OF_EMPTY_DOCKS":3,"X":391813.06003968,"Y":129717.65663091,"SE_ANNO_CAD_DATA":null}},{"type":"Feature","id":"56680068","geometry":{"type":"Point","coordinates":[-77.08955730739963,38.842327440007715]},"properties":{"OBJECTID":56680068,"ID":223,"ADDRESS":"S Arlington Mill Dr & Campbell Ave","TERMINAL_NUMBER":"31060","LATITUDE":38.84232,"LONGITUDE":-77.08955499999999,"INSTALLED":"YES","LOCKED":"NO","INSTALL_DATE":"2013-04-24T07:20:00.000Z","REMOVAL_DATE":null,"TEMPORARY_INSTALL":"NO","NUMBER_OF_BIKES":9,"NUMBER_OF_EMPTY_DOCKS":5,"X":392225.37311813,"Y":130506.16761101,"SE_ANNO_CAD_DATA":null}},{"type":"Feature","id":"56680069","geometry":{"type":"Point","coordinates":[-77.08492030637734,38.84846144120311]},"properties":{"OBJECTID":56680069,"ID":224,"ADDRESS":"S Kenmore & 24th St S","TERMINAL_NUMBER":"31061","LATITUDE":38.848454,"LONGITUDE":-77.084918,"INSTALLED":"YES","LOCKED":"NO","INSTALL_DATE":"2013-04-24T13:39:00.000Z","REMOVAL_DATE":null,"TEMPORARY_INSTALL":"NO","NUMBER_OF_BIKES":4,"NUMBER_OF_EMPTY_DOCKS":7,"X":392628.5628703,"Y":131186.69944748,"SE_ANNO_CAD_DATA":null}},{"type":"Feature","id":"56680070","geometry":{"type":"Point","coordinates":[-77.10055731169179,38.85469844194571]},"properties":{"OBJECTID":56680070,"ID":227,"ADDRESS":"S George Mason Dr & 13th St S","TERMINAL_NUMBER":"31062","LATITUDE":38.854690999999995,"LONGITUDE":-77.100555,"INSTALLED":"YES","LOCKED":"NO","INSTALL_DATE":"2013-07-01T11:54:00.000Z","REMOVAL_DATE":null,"TEMPORARY_INSTALL":"NO","NUMBER_OF_BIKES":4,"NUMBER_OF_EMPTY_DOCKS":7,"X":391271.93225753,"Y":131880.42919002,"SE_ANNO_CAD_DATA":null}},{"type":"Feature","id":"56680071","geometry":{"type":"Point","coordinates":[-77.06995830848619,38.955023463191814]},"properties":{"OBJECTID":56680071,"ID":228,"ADDRESS":"Connecticut & Nebraska Ave NW","TERMINAL_NUMBER":"31310","LATITUDE":38.955016,"LONGITUDE":-77.06995599999999,"INSTALLED":"YES","LOCKED":"NO","INSTALL_DATE":"2013-04-25T08:49:00.000Z","REMOVAL_DATE":null,"TEMPORARY_INSTALL":"NO","NUMBER_OF_BIKES":4,"NUMBER_OF_EMPTY_DOCKS":19,"X":393936.42688566,"Y":143014.83582892,"SE_ANNO_CAD_DATA":null}},{"type":"Feature","id":"56680072","geometry":{"type":"Point","coordinates":[-77.03836129551651,38.90814945529985]},"properties":{"OBJECTID":56680072,"ID":229,"ADDRESS":"17th St & Massachusetts Ave NW","TERMINAL_NUMBER":"31267","LATITUDE":38.908142,"LONGITUDE":-77.038359,"INSTALLED":"YES","LOCKED":"NO","INSTALL_DATE":"2013-05-06T10:52:00.000Z","REMOVAL_DATE":null,"TEMPORARY_INSTALL":"NO","NUMBER_OF_BIKES":6,"NUMBER_OF_EMPTY_DOCKS":13,"X":396672.97197532,"Y":137809.79141239,"SE_ANNO_CAD_DATA":null}},{"type":"Feature","id":"56680073","geometry":{"type":"Point","coordinates":[-77.03520229603743,38.92333745801636]},"properties":{"OBJECTID":56680073,"ID":230,"ADDRESS":"15th & Euclid St  NW","TERMINAL_NUMBER":"31117","LATITUDE":38.92333,"LONGITUDE":-77.0352,"INSTALLED":"YES","LOCKED":"NO","INSTALL_DATE":"2013-05-06T12:13:00.000Z","REMOVAL_DATE":null,"TEMPORARY_INSTALL":"NO","NUMBER_OF_BIKES":0,"NUMBER_OF_EMPTY_DOCKS":15,"X":396947.614649,"Y":139495.67546385,"SE_ANNO_CAD_DATA":null}},{"type":"Feature","id":"56680074","geometry":{"type":"Point","coordinates":[-76.99519528109361,38.88999545291882]},"properties":{"OBJECTID":56680074,"ID":231,"ADDRESS":"8th & East Capitol St NE","TERMINAL_NUMBER":"31629","LATITUDE":38.889987999999995,"LONGITUDE":-76.995193,"INSTALLED":"YES","LOCKED":"NO","INSTALL_DATE":"2013-05-14T11:33:00.000Z","REMOVAL_DATE":null,"TEMPORARY_INSTALL":"NO","NUMBER_OF_BIKES":3,"NUMBER_OF_EMPTY_DOCKS":8,"X":400417.03628136,"Y":135793.8641988,"SE_ANNO_CAD_DATA":null}},{"type":"Feature","id":"56680075","geometry":{"type":"Point","coordinates":[-77.01767129004266,38.912666456877794]},"properties":{"OBJECTID":56680075,"ID":232,"ADDRESS":"New Jersey Ave & R St NW","TERMINAL_NUMBER":"31509","LATITUDE":38.912659,"LONGITUDE":-77.017669,"INSTALLED":"YES","LOCKED":"NO","INSTALL_DATE":"2013-05-14T07:58:00.000Z","REMOVAL_DATE":null,"TEMPORARY_INSTALL":"NO","NUMBER_OF_BIKES":2,"NUMBER_OF_EMPTY_DOCKS":13,"X":398467.59465205,"Y":138310.66486152,"SE_ANNO_CAD_DATA":null}},{"type":"Feature","id":"56680076","geometry":{"type":"Point","coordinates":[-76.98332827784232,38.88991545330865]},"properties":{"OBJECTID":56680076,"ID":233,"ADDRESS":"15th & East Capitol St NE","TERMINAL_NUMBER":"31630","LATITUDE":38.889908,"LONGITUDE":-76.98332599999999,"INSTALLED":"YES","LOCKED":"NO","INSTALL_DATE":"2013-05-14T10:21:00.000Z","REMOVAL_DATE":null,"TEMPORARY_INSTALL":"NO","NUMBER_OF_BIKES":8,"NUMBER_OF_EMPTY_DOCKS":3,"X":401446.57181554,"Y":135785.10470279,"SE_ANNO_CAD_DATA":null}},{"type":"Feature","id":"56680077","geometry":{"type":"Point","coordinates":[-76.99475128178577,38.897281454560144]},"properties":{"OBJECTID":56680077,"ID":234,"ADDRESS":"8th & F St NE","TERMINAL_NUMBER":"31631","LATITUDE":38.897273999999996,"LONGITUDE":-76.994749,"INSTALLED":"YES","LOCKED":"NO","INSTALL_DATE":"2013-05-14T13:29:00.000Z","REMOVAL_DATE":null,"TEMPORARY_INSTALL":"NO","NUMBER_OF_BIKES":10,"NUMBER_OF_EMPTY_DOCKS":5,"X":400455.50943968,"Y":136602.66980664,"SE_ANNO_CAD_DATA":null}},{"type":"Feature","id":"56680078","geometry":{"type":"Point","coordinates":[-76.97892627890431,38.92710246124339]},"properties":{"OBJECTID":56680078,"ID":235,"ADDRESS":"18th St & Rhode Island Ave NE","TERMINAL_NUMBER":"31510","LATITUDE":38.927095,"LONGITUDE":-76.97892399999999,"INSTALLED":"YES","LOCKED":"NO","INSTALL_DATE":"2013-05-30T08:05:00.000Z","REMOVAL_DATE":null,"TEMPORARY_INSTALL":"NO","NUMBER_OF_BIKES":7,"NUMBER_OF_EMPTY_DOCKS":8,"X":401827.51926549,"Y":139913.24504791,"SE_ANNO_CAD_DATA":null}},{"type":"Feature","id":"56680079","geometry":{"type":"Point","coordinates":[-76.98357727826631,38.89720245484339]},"properties":{"OBJECTID":56680079,"ID":236,"ADDRESS":"15th & F St NE","TERMINAL_NUMBER":"31632","LATITUDE":38.897194999999996,"LONGITUDE":-76.983575,"INSTALLED":"YES","LOCKED":"NO","INSTALL_DATE":"2013-05-30T11:47:00.000Z","REMOVAL_DATE":null,"TEMPORARY_INSTALL":"NO","NUMBER_OF_BIKES":3,"NUMBER_OF_EMPTY_DOCKS":16,"X":401424.82399465,"Y":136594.01525712,"SE_ANNO_CAD_DATA":null}},{"type":"Feature","id":"56680080","geometry":{"type":"Point","coordinates":[-76.99095728269708,38.92865146110814]},"properties":{"OBJECTID":56680080,"ID":237,"ADDRESS":"12th & Irving St NE","TERMINAL_NUMBER":"31511","LATITUDE":38.928644,"LONGITUDE":-76.990955,"INSTALLED":"YES","LOCKED":"NO","INSTALL_DATE":"2013-05-30T10:12:00.000Z","REMOVAL_DATE":null,"TEMPORARY_INSTALL":"NO","NUMBER_OF_BIKES":9,"NUMBER_OF_EMPTY_DOCKS":6,"X":400784.28320356,"Y":140085.02523531,"SE_ANNO_CAD_DATA":null}},{"type":"Feature","id":"56680081","geometry":{"type":"Point","coordinates":[-76.95746326954638,38.884092453012656]},"properties":{"OBJECTID":56680081,"ID":238,"ADDRESS":"34th St & Minnesota Ave SE","TERMINAL_NUMBER":"31709","LATITUDE":38.884085,"LONGITUDE":-76.957461,"INSTALLED":"YES","LOCKED":"NO","INSTALL_DATE":"2013-06-04T11:14:00.000Z","REMOVAL_DATE":null,"TEMPORARY_INSTALL":"NO","NUMBER_OF_BIKES":6,"NUMBER_OF_EMPTY_DOCKS":5,"X":403690.82037747,"Y":135139.43433701,"SE_ANNO_CAD_DATA":null}},{"type":"Feature","id":"56680082","geometry":{"type":"Point","coordinates":[-76.99939027988194,38.843229443565235]},"properties":{"OBJECTID":56680082,"ID":239,"ADDRESS":"Alabama & MLK Ave SE","TERMINAL_NUMBER":"31800","LATITUDE":38.843222,"LONGITUDE":-76.999388,"INSTALLED":"YES","LOCKED":"NO","INSTALL_DATE":"2013-06-04T07:26:00.000Z","REMOVAL_DATE":null,"TEMPORARY_INSTALL":"NO","NUMBER_OF_BIKES":9,"NUMBER_OF_EMPTY_DOCKS":2,"X":400053.12949919,"Y":130602.48254664,"SE_ANNO_CAD_DATA":null}},{"type":"Feature","id":"56680083","geometry":{"type":"Point","coordinates":[-76.99003927844244,38.86390444774889]},"properties":{"OBJECTID":56680083,"ID":240,"ADDRESS":"Pleasant St & MLK Ave SE","TERMINAL_NUMBER":"31807","LATITUDE":38.863897,"LONGITUDE":-76.990037,"INSTALLED":"YES","LOCKED":"NO","INSTALL_DATE":"2013-06-04T09:17:00.000Z","REMOVAL_DATE":null,"TEMPORARY_INSTALL":"NO","NUMBER_OF_BIKES":5,"NUMBER_OF_EMPTY_DOCKS":6,"X":400864.66651397,"Y":132897.60195936,"SE_ANNO_CAD_DATA":null}},{"type":"Feature","id":"56680084","geometry":{"type":"Point","coordinates":[-76.98721327976979,38.90373945616374]},"properties":{"OBJECTID":56680084,"ID":241,"ADDRESS":"Neal St & Trinidad Ave NE","TERMINAL_NUMBER":"31512","LATITUDE":38.903732,"LONGITUDE":-76.987211,"INSTALLED":"YES","LOCKED":"NO","INSTALL_DATE":"2013-06-14T10:54:00.000Z","REMOVAL_DATE":null,"TEMPORARY_INSTALL":"NO","NUMBER_OF_BIKES":6,"NUMBER_OF_EMPTY_DOCKS":9,"X":401109.30924373,"Y":137319.62424193,"SE_ANNO_CAD_DATA":null}},{"type":"Feature","id":"56680085","geometry":{"type":"Point","coordinates":[-77.02978129384475,38.916801456862906]},"properties":{"OBJECTID":56680085,"ID":242,"ADDRESS":"13th & U St NW","TERMINAL_NUMBER":"31268","LATITUDE":38.916793999999996,"LONGITUDE":-77.02977899999999,"INSTALLED":"YES","LOCKED":"NO","INSTALL_DATE":"2013-06-14T13:34:00.000Z","REMOVAL_DATE":null,"TEMPORARY_INSTALL":"NO","NUMBER_OF_BIKES":21,"NUMBER_OF_EMPTY_DOCKS":1,"X":397417.46263773,"Y":138769.95715558,"SE_ANNO_CAD_DATA":null}},{"type":"Feature","id":"56680086","geometry":{"type":"Point","coordinates":[-77.1050243127606,38.852255441583296]},"properties":{"OBJECTID":56680086,"ID":243,"ADDRESS":"S George Mason Dr & Four Mile Run","TERMINAL_NUMBER":"31063","LATITUDE":38.852247999999996,"LONGITUDE":-77.10502199999999,"INSTALLED":"YES","LOCKED":"NO","INSTALL_DATE":"2013-07-01T10:55:00.000Z","REMOVAL_DATE":null,"TEMPORARY_INSTALL":"NO","NUMBER_OF_BIKES":10,"NUMBER_OF_EMPTY_DOCKS":0,"X":390883.88955688,"Y":131609.67553202,"SE_ANNO_CAD_DATA":null}},{"type":"Feature","id":"56680087","geometry":{"type":"Point","coordinates":[-77.08732530652092,38.83411543853421]},"properties":{"OBJECTID":56680087,"ID":244,"ADDRESS":"S Stafford & 34th St S","TERMINAL_NUMBER":"31064","LATITUDE":38.834108,"LONGITUDE":-77.087323,"INSTALLED":"YES","LOCKED":"NO","INSTALL_DATE":"2013-07-01T13:56:00.000Z","REMOVAL_DATE":null,"TEMPORARY_INSTALL":"NO","NUMBER_OF_BIKES":6,"NUMBER_OF_EMPTY_DOCKS":9,"X":392418.26989469,"Y":129594.39203722,"SE_ANNO_CAD_DATA":null}},{"type":"Feature","id":"56680088","geometry":{"type":"Point","coordinates":[-77.08596230862871,38.88071244779172]},"properties":{"OBJECTID":56680088,"ID":245,"ADDRESS":"N Pershing Dr & Wayne St","TERMINAL_NUMBER":"31065","LATITUDE":38.880705,"LONGITUDE":-77.08596,"INSTALLED":"YES","LOCKED":"NO","INSTALL_DATE":"2013-07-01T08:05:00.000Z","REMOVAL_DATE":null,"TEMPORARY_INSTALL":"NO","NUMBER_OF_BIKES":4,"NUMBER_OF_EMPTY_DOCKS":7,"X":392541.48161705,"Y":134766.88005929,"SE_ANNO_CAD_DATA":null}},{"type":"Feature","id":"56680089","geometry":{"type":"Point","coordinates":[-77.07231730358806,38.8672694453209]},"properties":{"OBJECTID":56680089,"ID":246,"ADDRESS":"Columbia Pike & S Orme St","TERMINAL_NUMBER":"31066","LATITUDE":38.867262,"LONGITUDE":-77.072315,"INSTALLED":"YES","LOCKED":"NO","INSTALL_DATE":"2013-07-01T09:17:00.000Z","REMOVAL_DATE":null,"TEMPORARY_INSTALL":"NO","NUMBER_OF_BIKES":4,"NUMBER_OF_EMPTY_DOCKS":7,"X":393724.23923893,"Y":133273.58021401,"SE_ANNO_CAD_DATA":null}},{"type":"Feature","id":"56680090","geometry":{"type":"Point","coordinates":[-77.00195728323102,38.88738545217498]},"properties":{"OBJECTID":56680090,"ID":247,"ADDRESS":"3rd St & Pennsylvania Ave SE","TERMINAL_NUMBER":"31269","LATITUDE":38.887378,"LONGITUDE":-77.001955,"INSTALLED":"YES","LOCKED":"NO","INSTALL_DATE":"2013-07-23T12:59:00.000Z","REMOVAL_DATE":null,"TEMPORARY_INSTALL":"NO","NUMBER_OF_BIKES":0,"NUMBER_OF_EMPTY_DOCKS":15,"X":399830.38573816,"Y":135504.12469495,"SE_ANNO_CAD_DATA":null}},{"type":"Feature","id":"56680091","geometry":{"type":"Point","coordinates":[-77.02324228999741,38.89485845322014]},"properties":{"OBJECTID":56680091,"ID":248,"ADDRESS":"8th & D St NW","TERMINAL_NUMBER":"31270","LATITUDE":38.894850999999996,"LONGITUDE":-77.02324,"INSTALLED":"YES","LOCKED":"NO","INSTALL_DATE":"2013-07-23T08:14:00.000Z","REMOVAL_DATE":null,"TEMPORARY_INSTALL":"NO","NUMBER_OF_BIKES":6,"NUMBER_OF_EMPTY_DOCKS":8,"X":397983.92709424,"Y":136333.94109577,"SE_ANNO_CAD_DATA":null}},{"type":"Feature","id":"56680092","geometry":{"type":"Point","coordinates":[-77.01597228968569,38.91762945781395]},"properties":{"OBJECTID":56680092,"ID":249,"ADDRESS":"3rd & Elm St NW","TERMINAL_NUMBER":"31118","LATITUDE":38.917622,"LONGITUDE":-77.01597,"INSTALLED":"YES","LOCKED":"NO","INSTALL_DATE":"2013-07-23T10:29:00.000Z","REMOVAL_DATE":null,"TEMPORARY_INSTALL":"NO","NUMBER_OF_BIKES":8,"NUMBER_OF_EMPTY_DOCKS":7,"X":398615.04270249,"Y":138861.57200073,"SE_ANNO_CAD_DATA":null}},{"type":"Feature","id":"56680093","geometry":{"type":"Point","coordinates":[-77.00474828632697,38.91816245814477]},"properties":{"OBJECTID":56680093,"ID":250,"ADDRESS":"Rhode Island Ave & V St NE","TERMINAL_NUMBER":"31513","LATITUDE":38.918155,"LONGITUDE":-77.004746,"INSTALLED":"YES","LOCKED":"NO","INSTALL_DATE":"2013-07-30T11:05:00.000Z","REMOVAL_DATE":null,"TEMPORARY_INSTALL":"NO","NUMBER_OF_BIKES":10,"NUMBER_OF_EMPTY_DOCKS":9,"X":399588.4183945,"Y":138920.62902241,"SE_ANNO_CAD_DATA":null}},{"type":"Feature","id":"56680094","geometry":{"type":"Point","coordinates":[-77.01391928698713,38.89228245283923]},"properties":{"OBJECTID":56680094,"ID":251,"ADDRESS":"Constitution Ave & 2nd St NW/DOL","TERMINAL_NUMBER":"31271","LATITUDE":38.892275,"LONGITUDE":-77.01391699999999,"INSTALLED":"YES","LOCKED":"NO","INSTALL_DATE":"2013-07-30T09:18:00.000Z","REMOVAL_DATE":null,"TEMPORARY_INSTALL":"NO","NUMBER_OF_BIKES":8,"NUMBER_OF_EMPTY_DOCKS":19,"X":398792.6549073,"Y":136047.82018144,"SE_ANNO_CAD_DATA":null}},{"type":"Feature","id":"56680095","geometry":{"type":"Point","coordinates":[-77.01397228723133,38.887317451535985]},"properties":{"OBJECTID":56680095,"ID":252,"ADDRESS":"Washington & Independence Ave SW/HHS","TERMINAL_NUMBER":"31272","LATITUDE":38.88731,"LONGITUDE":-77.01397,"INSTALLED":"YES","LOCKED":"NO","INSTALL_DATE":"2013-08-02T08:04:00.000Z","REMOVAL_DATE":null,"TEMPORARY_INSTALL":"NO","NUMBER_OF_BIKES":7,"NUMBER_OF_EMPTY_DOCKS":18,"X":398787.97264086,"Y":135496.66708967,"SE_ANNO_CAD_DATA":null}},{"type":"Feature","id":"56680096","geometry":{"type":"Point","coordinates":[-77.0257642905048,38.887319451409745]},"properties":{"OBJECTID":56680096,"ID":253,"ADDRESS":"Independence Ave & LEnfant Plaza SW/DOE","TERMINAL_NUMBER":"31633","LATITUDE":38.887312,"LONGITUDE":-77.025762,"INSTALLED":"YES","LOCKED":"NO","INSTALL_DATE":"2013-08-06T07:48:00.000Z","REMOVAL_DATE":null,"TEMPORARY_INSTALL":"NO","NUMBER_OF_BIKES":12,"NUMBER_OF_EMPTY_DOCKS":3,"X":397764.90711108,"Y":135497.11174245,"SE_ANNO_CAD_DATA":null}},{"type":"Feature","id":"56680097","geometry":{"type":"Point","coordinates":[-76.99719628462384,38.92750446032262]},"properties":{"OBJECTID":56680097,"ID":254,"ADDRESS":"Hamlin & 7th St NE","TERMINAL_NUMBER":"31514","LATITUDE":38.927496999999995,"LONGITUDE":-76.997194,"INSTALLED":"YES","LOCKED":"NO","INSTALL_DATE":"2013-08-16T07:44:00.000Z","REMOVAL_DATE":null,"TEMPORARY_INSTALL":"NO","NUMBER_OF_BIKES":6,"NUMBER_OF_EMPTY_DOCKS":9,"X":400243.30946072,"Y":139957.66327101,"SE_ANNO_CAD_DATA":null}},{"type":"Feature","id":"56680098","geometry":{"type":"Point","coordinates":[-77.08660130766492,38.86248544415234]},"properties":{"OBJECTID":56680098,"ID":255,"ADDRESS":"Columbia Pike & S Walter Reed Dr","TERMINAL_NUMBER":"31067","LATITUDE":38.862477999999996,"LONGITUDE":-77.08659899999999,"INSTALLED":"YES","LOCKED":"NO","INSTALL_DATE":"2013-08-27T08:09:00.000Z","REMOVAL_DATE":null,"TEMPORARY_INSTALL":"NO","NUMBER_OF_BIKES":8,"NUMBER_OF_EMPTY_DOCKS":4,"X":392484.11792553,"Y":132743.60030238,"SE_ANNO_CAD_DATA":null}},{"type":"Feature","id":"56680099","geometry":{"type":"Point","coordinates":[-77.11153231473833,38.856326442004594]},"properties":{"OBJECTID":56680099,"ID":256,"ADDRESS":"Columbia Pike & S Dinwiddie St / Arlington Mill Community Center","TERMINAL_NUMBER":"31068","LATITUDE":38.856319,"LONGITUDE":-77.11153,"INSTALLED":"YES","LOCKED":"NO","INSTALL_DATE":"2013-08-29T07:41:00.000Z","REMOVAL_DATE":null,"TEMPORARY_INSTALL":"NO","NUMBER_OF_BIKES":6,"NUMBER_OF_EMPTY_DOCKS":9,"X":390319.53509636,"Y":132062.25529952,"SE_ANNO_CAD_DATA":null}},{"type":"Feature","id":"56680100","geometry":{"type":"Point","coordinates":[-77.107908315264,38.871829444962245]},"properties":{"OBJECTID":56680100,"ID":257,"ADDRESS":"Pershing & N George Mason Dr","TERMINAL_NUMBER":"31069","LATITUDE":38.871822,"LONGITUDE":-77.107906,"INSTALLED":"YES","LOCKED":"NO","INSTALL_DATE":"2013-08-29T12:00:00.000Z","REMOVAL_DATE":null,"TEMPORARY_INSTALL":"NO","NUMBER_OF_BIKES":3,"NUMBER_OF_EMPTY_DOCKS":8,"X":390636.1213437,"Y":133782.82258341,"SE_ANNO_CAD_DATA":null}},{"type":"Feature","id":"56680101","geometry":{"type":"Point","coordinates":[-77.02941929766217,38.987007471035156]},"properties":{"OBJECTID":56680101,"ID":225,"ADDRESS":"13th St & Eastern Ave","TERMINAL_NUMBER":"32006","LATITUDE":38.987,"LONGITUDE":-77.029417,"INSTALLED":"YES","LOCKED":"NO","INSTALL_DATE":"2013-09-27T10:38:00.000Z","REMOVAL_DATE":null,"TEMPORARY_INSTALL":"NO","NUMBER_OF_BIKES":8,"NUMBER_OF_EMPTY_DOCKS":7,"X":397451.3679179,"Y":146563.45146648,"SE_ANNO_CAD_DATA":null}},{"type":"Feature","id":"56680102","geometry":{"type":"Point","coordinates":[-77.06358830382516,38.90849745439271]},"properties":{"OBJECTID":56680102,"ID":226,"ADDRESS":"Wisconsin Ave & O St NW","TERMINAL_NUMBER":"31312","LATITUDE":38.90849,"LONGITUDE":-77.063586,"INSTALLED":"YES","LOCKED":"NO","INSTALL_DATE":"2013-04-25T13:27:00.000Z","REMOVAL_DATE":null,"TEMPORARY_INSTALL":"NO","NUMBER_OF_BIKES":18,"NUMBER_OF_EMPTY_DOCKS":1,"X":394484.96152307,"Y":137849.64397882,"SE_ANNO_CAD_DATA":null}},{"type":"Feature","id":"56680103","geometry":{"type":"Point","coordinates":[-77.02308429614399,38.985411471339745]},"properties":{"OBJECTID":56680103,"ID":258,"ADDRESS":"Fenton St & New York Ave","TERMINAL_NUMBER":"32001","LATITUDE":38.985403999999996,"LONGITUDE":-77.023082,"INSTALLED":"YES","LOCKED":"NO","INSTALL_DATE":"2013-09-27T10:37:00.000Z","REMOVAL_DATE":null,"TEMPORARY_INSTALL":"NO","NUMBER_OF_BIKES":6,"NUMBER_OF_EMPTY_DOCKS":9,"X":398000.17527578,"Y":146386.12192328,"SE_ANNO_CAD_DATA":null}},{"type":"Feature","id":"56680104","geometry":{"type":"Point","coordinates":[-77.09742831811562,38.981110467414545]},"properties":{"OBJECTID":56680104,"ID":259,"ADDRESS":"Bethesda Ave & Arlington Blvd","TERMINAL_NUMBER":"32002","LATITUDE":38.981103,"LONGITUDE":-77.097426,"INSTALLED":"YES","LOCKED":"NO","INSTALL_DATE":"2013-09-27T10:37:00.000Z","REMOVAL_DATE":null,"TEMPORARY_INSTALL":"NO","NUMBER_OF_BIKES":12,"NUMBER_OF_EMPTY_DOCKS":7,"X":391558.50228853,"Y":145912.92051654,"SE_ANNO_CAD_DATA":null}},{"type":"Feature","id":"56680105","geometry":{"type":"Point","coordinates":[-77.09221231683527,38.98384546847038]},"properties":{"OBJECTID":56680105,"ID":260,"ADDRESS":"Montgomery Ave & Waverly St","TERMINAL_NUMBER":"32003","LATITUDE":38.983838,"LONGITUDE":-77.09221,"INSTALLED":"YES","LOCKED":"NO","INSTALL_DATE":"2013-10-19T14:48:00.000Z","REMOVAL_DATE":null,"TEMPORARY_INSTALL":"NO","NUMBER_OF_BIKES":7,"NUMBER_OF_EMPTY_DOCKS":4,"X":392010.75030162,"Y":146216.06266962,"SE_ANNO_CAD_DATA":null}},{"type":"Feature","id":"56680106","geometry":{"type":"Point","coordinates":[-77.19267435488064,39.0963194870011]},"properties":{"OBJECTID":56680106,"ID":261,"ADDRESS":"Fallsgrove Blvd & Fallsgrove Dr","TERMINAL_NUMBER":"32004","LATITUDE":39.096312,"LONGITUDE":-77.192672,"INSTALLED":"YES","LOCKED":"NO","INSTALL_DATE":"2013-09-27T10:37:00.000Z","REMOVAL_DATE":null,"TEMPORARY_INSTALL":"NO","NUMBER_OF_BIKES":8,"NUMBER_OF_EMPTY_DOCKS":11,"X":383332.89363763,"Y":158715.4845769,"SE_ANNO_CAD_DATA":null}},{"type":"Feature","id":"56680107","geometry":{"type":"Point","coordinates":[-77.20250335759286,39.09379048626557]},"properties":{"OBJECTID":56680107,"ID":262,"ADDRESS":"Traville Gateway Dr & Gudelsky Dr","TERMINAL_NUMBER":"32005","LATITUDE":39.093782999999995,"LONGITUDE":-77.202501,"INSTALLED":"YES","LOCKED":"NO","INSTALL_DATE":"2013-09-27T10:38:00.000Z","REMOVAL_DATE":null,"TEMPORARY_INSTALL":"NO","NUMBER_OF_BIKES":11,"NUMBER_OF_EMPTY_DOCKS":8,"X":382482.01381244,"Y":158436.57487359,"SE_ANNO_CAD_DATA":null}},{"type":"Feature","id":"56680108","geometry":{"type":"Point","coordinates":[-77.09654131824111,38.98856946911088]},"properties":{"OBJECTID":56680108,"ID":263,"ADDRESS":"Norfolk Ave & Fairmont St","TERMINAL_NUMBER":"32000","LATITUDE":38.988562,"LONGITUDE":-77.09653899999999,"INSTALLED":"YES","LOCKED":"NO","INSTALL_DATE":"2013-09-27T10:36:00.000Z","REMOVAL_DATE":null,"TEMPORARY_INSTALL":"NO","NUMBER_OF_BIKES":7,"NUMBER_OF_EMPTY_DOCKS":4,"X":391636.2322207,"Y":146740.86068606,"SE_ANNO_CAD_DATA":null}},{"type":"Feature","id":"56680109","geometry":{"type":"Point","coordinates":[-77.15129334141574,39.08413248609787]},"properties":{"OBJECTID":56680109,"ID":264,"ADDRESS":"E Montgomery Ave & Maryland Ave","TERMINAL_NUMBER":"32007","LATITUDE":39.084125,"LONGITUDE":-77.151291,"INSTALLED":"YES","LOCKED":"NO","INSTALL_DATE":"2013-09-27T10:36:00.000Z","REMOVAL_DATE":null,"TEMPORARY_INSTALL":"NO","NUMBER_OF_BIKES":4,"NUMBER_OF_EMPTY_DOCKS":11,"X":386910.31438669,"Y":157355.83432885,"SE_ANNO_CAD_DATA":null}},{"type":"Feature","id":"56680110","geometry":{"type":"Point","coordinates":[-77.09803131889821,38.989547469087746]},"properties":{"OBJECTID":56680110,"ID":265,"ADDRESS":"Cordell & Norfolk Ave","TERMINAL_NUMBER":"32008","LATITUDE":38.98954,"LONGITUDE":-77.098029,"INSTALLED":"YES","LOCKED":"NO","INSTALL_DATE":"2013-09-27T10:39:00.000Z","REMOVAL_DATE":null,"TEMPORARY_INSTALL":"NO","NUMBER_OF_BIKES":5,"NUMBER_OF_EMPTY_DOCKS":6,"X":391507.26098283,"Y":146849.56589176,"SE_ANNO_CAD_DATA":null}},{"type":"Feature","id":"56680111","geometry":{"type":"Point","coordinates":[-77.14521534040932,39.09477948863085]},"properties":{"OBJECTID":56680111,"ID":266,"ADDRESS":"Frederick Ave & Horners Ln","TERMINAL_NUMBER":"32009","LATITUDE":39.094772,"LONGITUDE":-77.145213,"INSTALLED":"YES","LOCKED":"NO","INSTALL_DATE":"2013-09-27T10:39:00.000Z","REMOVAL_DATE":null,"TEMPORARY_INSTALL":"NO","NUMBER_OF_BIKES":5,"NUMBER_OF_EMPTY_DOCKS":6,"X":387438.06215384,"Y":158536.92774774,"SE_ANNO_CAD_DATA":null}},{"type":"Feature","id":"56680112","geometry":{"type":"Point","coordinates":[-77.01133829179237,38.98128747064646]},"properties":{"OBJECTID":56680112,"ID":267,"ADDRESS":"Philadelphia & Maple Ave","TERMINAL_NUMBER":"32010","LATITUDE":38.98128,"LONGITUDE":-77.011336,"INSTALLED":"YES","LOCKED":"NO","INSTALL_DATE":"2013-09-27T10:39:00.000Z","REMOVAL_DATE":null,"TEMPORARY_INSTALL":"NO","NUMBER_OF_BIKES":7,"NUMBER_OF_EMPTY_DOCKS":8,"X":399017.79198301,"Y":145928.12570682,"SE_ANNO_CAD_DATA":null}},{"type":"Feature","id":"56680113","geometry":{"type":"Point","coordinates":[-77.00631329059557,38.98363447155389]},"properties":{"OBJECTID":56680113,"ID":268,"ADDRESS":"Maple & Ritchie Ave","TERMINAL_NUMBER":"32011","LATITUDE":38.983627,"LONGITUDE":-77.006311,"INSTALLED":"YES","LOCKED":"NO","INSTALL_DATE":"2013-09-27T10:40:00.000Z","REMOVAL_DATE":null,"TEMPORARY_INSTALL":"NO","NUMBER_OF_BIKES":9,"NUMBER_OF_EMPTY_DOCKS":10,"X":399453.20125046,"Y":146188.62355439,"SE_ANNO_CAD_DATA":null}},{"type":"Feature","id":"56680114","geometry":{"type":"Point","coordinates":[-77.02918229860636,38.995217473151605]},"properties":{"OBJECTID":56680114,"ID":269,"ADDRESS":"Silver Spring Metro/Colesville Rd & Wayne Ave","TERMINAL_NUMBER":"32012","LATITUDE":38.99521,"LONGITUDE":-77.02918,"INSTALLED":"YES","LOCKED":"NO","INSTALL_DATE":"2013-09-27T10:40:00.000Z","REMOVAL_DATE":null,"TEMPORARY_INSTALL":"NO","NUMBER_OF_BIKES":12,"NUMBER_OF_EMPTY_DOCKS":7,"X":397472.19246231,"Y":147474.83666596,"SE_ANNO_CAD_DATA":null}},{"type":"Feature","id":"56680115","geometry":{"type":"Point","coordinates":[-77.09536931784459,38.98353246798391]},"properties":{"OBJECTID":56680115,"ID":270,"ADDRESS":"Montgomery & East Ln","TERMINAL_NUMBER":"32013","LATITUDE":38.983525,"LONGITUDE":-77.095367,"INSTALLED":"YES","LOCKED":"NO","INSTALL_DATE":"2013-09-27T10:40:00.000Z","REMOVAL_DATE":null,"TEMPORARY_INSTALL":"NO","NUMBER_OF_BIKES":7,"NUMBER_OF_EMPTY_DOCKS":4,"X":391737.18561936,"Y":146181.59764099,"SE_ANNO_CAD_DATA":null}},{"type":"Feature","id":"56680116","geometry":{"type":"Point","coordinates":[-77.0860003135029,38.96177046393328]},"properties":{"OBJECTID":56680116,"ID":271,"ADDRESS":"Friendship Hts Metro/Wisconsin Ave & Wisconsin Cir","TERMINAL_NUMBER":"32014","LATITUDE":38.961763,"LONGITUDE":-77.085998,"INSTALLED":"YES","LOCKED":"NO","INSTALL_DATE":"2013-09-27T10:41:00.000Z","REMOVAL_DATE":null,"TEMPORARY_INSTALL":"NO","NUMBER_OF_BIKES":7,"NUMBER_OF_EMPTY_DOCKS":11,"X":392546.66110808,"Y":143765.00251832,"SE_ANNO_CAD_DATA":null}},{"type":"Feature","id":"56680117","geometry":{"type":"Point","coordinates":[-77.03188929490051,38.921081457874834]},"properties":{"OBJECTID":56680117,"ID":272,"ADDRESS":"14th & Belmont St NW","TERMINAL_NUMBER":"31119","LATITUDE":38.921074,"LONGITUDE":-77.031887,"INSTALLED":"YES","LOCKED":"NO","INSTALL_DATE":"2013-10-02T09:06:00.000Z","REMOVAL_DATE":null,"TEMPORARY_INSTALL":"NO","NUMBER_OF_BIKES":5,"NUMBER_OF_EMPTY_DOCKS":10,"X":397234.815588,"Y":139245.1348178,"SE_ANNO_CAD_DATA":null}},{"type":"Feature","id":"56680118","geometry":{"type":"Point","coordinates":[-77.00240228252825,38.87501744952474]},"properties":{"OBJECTID":56680118,"ID":273,"ADDRESS":"3rd & Tingey St SE","TERMINAL_NUMBER":"31634","LATITUDE":38.875009999999996,"LONGITUDE":-77.00240000000001,"INSTALLED":"YES","LOCKED":"NO","INSTALL_DATE":"2013-10-02T10:05:00.000Z","REMOVAL_DATE":null,"TEMPORARY_INSTALL":"NO","NUMBER_OF_BIKES":1,"NUMBER_OF_EMPTY_DOCKS":18,"X":399791.74179325,"Y":134131.1830227,"SE_ANNO_CAD_DATA":null}},{"type":"Feature","id":"56680119","geometry":{"type":"Point","coordinates":[-77.0256742929907,38.92039445809901]},"properties":{"OBJECTID":56680119,"ID":274,"ADDRESS":"10th & Florida Ave NW","TERMINAL_NUMBER":"31120","LATITUDE":38.920387,"LONGITUDE":-77.025672,"INSTALLED":"YES","LOCKED":"NO","INSTALL_DATE":"2013-10-09T08:12:00.000Z","REMOVAL_DATE":null,"TEMPORARY_INSTALL":"NO","NUMBER_OF_BIKES":5,"NUMBER_OF_EMPTY_DOCKS":14,"X":397773.74796634,"Y":139168.70211579,"SE_ANNO_CAD_DATA":null}},{"type":"Feature","id":"56680120","geometry":{"type":"Point","coordinates":[-76.9944702802653,38.87674445049225]},"properties":{"OBJECTID":56680120,"ID":275,"ADDRESS":"Potomac Ave & 8th St SE","TERMINAL_NUMBER":"31635","LATITUDE":38.876737,"LONGITUDE":-76.994468,"INSTALLED":"YES","LOCKED":"NO","INSTALL_DATE":"2013-10-09T11:50:00.000Z","REMOVAL_DATE":null,"TEMPORARY_INSTALL":"NO","NUMBER_OF_BIKES":4,"NUMBER_OF_EMPTY_DOCKS":11,"X":400480.02354886,"Y":134322.90486178,"SE_ANNO_CAD_DATA":null}},{"type":"Feature","id":"56680121","geometry":{"type":"Point","coordinates":[-77.15698734528269,39.120052493498555]},"properties":{"OBJECTID":56680121,"ID":276,"ADDRESS":"Crabbs Branch Way & Redland Rd","TERMINAL_NUMBER":"32015","LATITUDE":39.120045,"LONGITUDE":-77.15698499999999,"INSTALLED":"YES","LOCKED":"NO","INSTALL_DATE":"2013-10-18T08:48:00.000Z","REMOVAL_DATE":null,"TEMPORARY_INSTALL":"NO","NUMBER_OF_BIKES":10,"NUMBER_OF_EMPTY_DOCKS":5,"X":386424.52768958,"Y":161344.23740847,"SE_ANNO_CAD_DATA":null}},{"type":"Feature","id":"56680122","geometry":{"type":"Point","coordinates":[-77.1880163535727,39.09938348767599]},"properties":{"OBJECTID":56680122,"ID":277,"ADDRESS":"Fallsgrove Dr & W Montgomery Ave","TERMINAL_NUMBER":"32016","LATITUDE":39.099376,"LONGITUDE":-77.188014,"INSTALLED":"YES","LOCKED":"NO","INSTALL_DATE":"2013-10-18T14:23:00.000Z","REMOVAL_DATE":null,"TEMPORARY_INSTALL":"NO","NUMBER_OF_BIKES":6,"NUMBER_OF_EMPTY_DOCKS":9,"X":383736.53425668,"Y":159054.78633972,"SE_ANNO_CAD_DATA":null}},{"type":"Feature","id":"56680123","geometry":{"type":"Point","coordinates":[-77.14944534048827,39.08371248613681]},